country,state,city,station,last_update,latitude,longitude,pollutant_id,pollutant_min,pollutant_max,pollutant_avg
India,Bihar,Patna,"Govt. High School Shikarpur, Patna - BSPCB","14-02-2026 12:00:00",25.592539,85.227158,SO2,4,6,5
India,Bihar,Patna,"Govt. High School Shikarpur, Patna - BSPCB","14-02-2026 12:00:00",25.592539,85.227158,CO,34,100,77
India,Bihar,Patna,"IGSC Planetarium Complex, Patna - BSPCB","14-02-2026 12:00:00",25.610369,85.132568,NO2,1,1,1
India,Bihar,Patna,"IGSC Planetarium Complex, Patna - BSPCB","14-02-2026 12:00:00",25.610369,85.132568,SO2,1,1,1
India,Bihar,Patna,"IGSC Planetarium Complex, Patna - BSPCB","14-02-2026 12:00:00",25.610369,85.132568,CO,6,6,6
India,Bihar,Patna,"IGSC Planetarium Complex, Patna - BSPCB","14-02-2026 12:00:00",25.610369,85.132568,OZONE,28,29,29
India,Bihar,Patna,"Muradpur, Patna - BSPCB","14-02-2026 12:00:00",25.619651,85.147382,PM2.5,54,133,85
India,Bihar,Patna,"Muradpur, Patna - BSPCB","14-02-2026 12:00:00",25.619651,85.147382,CO,16,70,36
India,Bihar,Patna,"Rajbansi Nagar, Patna - BSPCB","14-02-2026 12:00:00",25.599486,85.113666,PM10,82,142,113
India,Bihar,Patna,"Samanpura, Patna - BSPCB","14-02-2026 12:00:00",25.596727,85.085624,SO2,4,5,4
India,Bihar,Patna,"Samanpura, Patna - BSPCB","14-02-2026 12:00:00",25.596727,85.085624,OZONE,8,88,25
India,Bihar,Purnia,"Mariam Nagar, Purnia - BSPCB","14-02-2026 12:00:00",25.366336,87.117468,PM2.5,63,92,78
India,Bihar,Purnia,"Mariam Nagar, Purnia - BSPCB","14-02-2026 12:00:00",25.366336,87.117468,NO2,5,6,6
India,Bihar,Purnia,"Mariam Nagar, Purnia - BSPCB","14-02-2026 12:00:00",25.366336,87.117468,SO2,12,25,17
India,Bihar,Purnia,"Mariam Nagar, Purnia - BSPCB","14-02-2026 12:00:00",25.366336,87.117468,CO,42,88,60
India,Assam,Guwahati,"Pan Bazaar, Guwahati - PCBA","14-02-2026 12:00:00",26.187500,91.744194,OZONE,12,20,13
India,Assam,Guwahati,"Railway Colony, Guwahati - PCBA","14-02-2026 12:00:00",26.181742,91.78063,NO2,3,4,3
India,Assam,Guwahati,"Railway Colony, Guwahati - PCBA","14-02-2026 12:00:00",26.181742,91.78063,SO2,23,26,25
India,Assam,Nagaon,"Christianpatty, Nagaon - PCBA","14-02-2026 12:00:00",26.349082,92.68449,SO2,1,13,10
India,Assam,Nalbari,"Bata Chowk, Nalbari - PCBA","14-02-2026 12:00:00",26.446912,91.439057,NH3,6,6,6
India,Assam,Silchar,"Tarapur, Silchar - PCBA","14-02-2026 12:00:00",24.82827,92.79525,SO2,4,6,5
India,Assam,Sivasagar,"Girls College, Sivasagar - PCBA","14-02-2026 12:00:00",26.987634,94.636574,CO,28,111,47
India,Bihar,Araria,"Kharahiya Basti, Araria - BSPCB","14-02-2026 12:00:00",26.146529,87.454184,PM10,23,103,65
India,Bihar,Araria,"Kharahiya Basti, Araria - BSPCB","14-02-2026 12:00:00",26.146529,87.454184,NH3,4,5,4
India,Bihar,Rajgir,"Dangi Tola, Rajgir - BSPCB","14-02-2026 12:00:00",25.03280,85.41948,CO,83,96,88
India,Bihar,Saharsa,"Police Line, Saharsa - BSPCB","14-02-2026 12:00:00",25.892357,86.590325,PM10,56,146,92
India,Bihar,Saharsa,"Police Line, Saharsa - BSPCB","14-02-2026 12:00:00",25.892357,86.590325,NO2,5,9,7
India,Bihar,Saharsa,"Police Line, Saharsa - BSPCB","14-02-2026 12:00:00",25.892357,86.590325,SO2,15,19,17
India,Bihar,Saharsa,"Police Line, Saharsa - BSPCB","14-02-2026 12:00:00",25.892357,86.590325,CO,34,44,42
India,Bihar,Sasaram,"Dada Peer, Sasaram - BSPCB","14-02-2026 12:00:00",24.952822,84.002396,NO2,2,9,3
India,Bihar,Sasaram,"Dada Peer, Sasaram - BSPCB","14-02-2026 12:00:00",24.952822,84.002396,OZONE,13,44,17
India,Bihar,Siwan,"Chitragupta Nagar, Siwan - BSPCB","14-02-2026 12:00:00",26.2271665,84.3570427,PM10,52,126,76
India,Bihar,Siwan,"Chitragupta Nagar, Siwan - BSPCB","14-02-2026 12:00:00",26.2271665,84.3570427,CO,50,90,78
India,Bihar,Siwan,"Chitragupta Nagar, Siwan - BSPCB","14-02-2026 12:00:00",26.2271665,84.3570427,OZONE,11,12,12
India,Andhra_Pradesh,Rajamahendravaram,"Anand Kala Kshetram, Rajamahendravaram - APPCB","14-02-2026 12:00:00",16.9872867,81.7363176,CO,24,60,36
India,Andhra_Pradesh,Tirumala,"Toll Gate, Tirumala - APPCB","14-02-2026 12:00:00",13.67,79.35,PM10,24,96,58
India,Andhra_Pradesh,Vijayawada,"HB Colony, Vijayawada - APPCB","14-02-2026 12:00:00",16.536107,80.594233,NO2,21,26,25
India,Andhra_Pradesh,Vijayawada,"Kanuru, Vijayawada - APPCB","14-02-2026 12:00:00",16.486692,80.699436,PM2.5,44,65,50
India,Andhra_Pradesh,Vijayawada,"Rajiv Gandhi Park, Vijayawada - APPCB","14-02-2026 12:00:00",16.509717,80.612222,PM2.5,66,128,87
India,Andhra_Pradesh,Vijayawada,"Rajiv Gandhi Park, Vijayawada - APPCB","14-02-2026 12:00:00",16.509717,80.612222,SO2,13,18,17
India,Andhra_Pradesh,Vijayawada,"Rajiv Gandhi Park, Vijayawada - APPCB","14-02-2026 12:00:00",16.509717,80.612222,CO,32,39,39
India,Andhra_Pradesh,Vijayawada,"Rajiv Nagar, Vijayawada - APPCB","14-02-2026 12:00:00",16.554731,80.649110,PM2.5,NA,NA,NA
India,Andhra_Pradesh,Amaravati,"Secretariat, Amaravati - APPCB","14-02-2026 12:00:00",16.5150833,80.5181667,NH3,4,8,5
India,Andhra_Pradesh,Anantapur,"Gulzarpet, Anantapur - APPCB","14-02-2026 12:00:00",14.675886,77.593027,PM2.5,69,99,85
India,Andhra_Pradesh,Anantapur,"Gulzarpet, Anantapur - APPCB","14-02-2026 12:00:00",14.675886,77.593027,PM10,66,86,76
India,Andhra_Pradesh,Anantapur,"Gulzarpet, Anantapur - APPCB","14-02-2026 12:00:00",14.675886,77.593027,CO,24,46,33
India,Andhra_Pradesh,Anantapur,"Gulzarpet, Anantapur - APPCB","14-02-2026 12:00:00",14.675886,77.593027,OZONE,17,17,17
India,Andhra_Pradesh,Chittoor,"Gangineni Cheruvu, Chittoor - APPCB","14-02-2026 12:00:00",13.204880,79.097889,PM2.5,48,69,54
India,Andhra_Pradesh,Kadapa,"Yerramukkapalli, Kadapa - APPCB","14-02-2026 12:00:00",14.465052,78.824187,NO2,19,23,21
India,Andhra_Pradesh,Kadapa,"Yerramukkapalli, Kadapa - APPCB","14-02-2026 12:00:00",14.465052,78.824187,NH3,3,3,3
India,Bihar,Gaya,"SFTI Kusdihra, Gaya - BSPCB","14-02-2026 12:00:00",24.762518,84.982348,SO2,4,22,7
India,Bihar,Hajipur,"Industrial Area, Hajipur - BSPCB","14-02-2026 12:00:00",25.697189,85.245900,CO,8,48,41
India,Bihar,Katihar,"Mirchaibari, Katihar - BSPCB","14-02-2026 12:00:00",25.560083,87.553265,PM10,55,99,73
India,Bihar,Katihar,"Mirchaibari, Katihar - BSPCB","14-02-2026 12:00:00",25.560083,87.553265,SO2,14,22,18
India,Bihar,Kishanganj,"SDM Office_Khagra, Kishanganj - BSPCB","14-02-2026 12:00:00",26.0881305,87.93840336,PM2.5,58,97,75
India,Bihar,Kishanganj,"SDM Office_Khagra, Kishanganj - BSPCB","14-02-2026 12:00:00",26.0881305,87.93840336,NH3,3,3,3
India,Bihar,Manguraha,"Forest Rest House, Manguraha - BSPCB","14-02-2026 12:00:00",27.308328,84.531742,PM10,98,160,115
India,Bihar,Munger,"Town Hall, Munger - BSPCB","14-02-2026 12:00:00",25.376776,86.471523,PM2.5,28,87,55
India,Bihar,Munger,"Town Hall, Munger - BSPCB","14-02-2026 12:00:00",25.376776,86.471523,SO2,26,34,30
India,Bihar,Muzaffarpur,"Buddha Colony, Muzaffarpur - BSPCB","14-02-2026 12:00:00",26.11442,85.39813,PM2.5,44,127,89
India,Bihar,Muzaffarpur,"Buddha Colony, Muzaffarpur - BSPCB","14-02-2026 12:00:00",26.11442,85.39813,NO2,18,66,37
India,Bihar,Muzaffarpur,"MIT-Daudpur Kothi, Muzaffarpur - BSPCB","14-02-2026 12:00:00",26.1403345,85.3650192,NO2,3,4,3
India,Bihar,Patna,"DRM Office Danapur, Patna - BSPCB","14-02-2026 12:00:00",25.586562,85.043586,OZONE,NA,NA,NA
India,Bihar,Patna,"Govt. High School Shikarpur, Patna - BSPCB","14-02-2026 12:00:00",25.592539,85.227158,PM10,102,137,120
India,Bihar,Bhagalpur,"DM Office_Kachari Chowk, Bhagalpur - BSPCB","14-02-2026 12:00:00",25.251013,86.989001,NH3,1,1,1
India,Bihar,Bhagalpur,"DM Office_Kachari Chowk, Bhagalpur - BSPCB","14-02-2026 12:00:00",25.251013,86.989001,OZONE,11,21,15
India,Bihar,Bhagalpur,"Mayaganj, Bhagalpur - BSPCB","14-02-2026 12:00:00",25.265194,87.012947,NH3,5,11,7
India,Bihar,"Bihar Sharif","D M Colony, Bihar Sharif - BSPCB","14-02-2026 12:00:00",25.204762,85.514960,PM2.5,25,78,53
India,Bihar,Chhapra,"Darshan Nagar, Chhapra - BSPCB","14-02-2026 12:00:00",25.7808257,84.7446768,PM2.5,28,325,66
India,Bihar,Chhapra,"Darshan Nagar, Chhapra - BSPCB","14-02-2026 12:00:00",25.7808257,84.7446768,PM10,40,314,85
India,Bihar,Chhapra,"Darshan Nagar, Chhapra - BSPCB","14-02-2026 12:00:00",25.7808257,84.7446768,NO2,1,1,1
India,Bihar,Chhapra,"Darshan Nagar, Chhapra - BSPCB","14-02-2026 12:00:00",25.7808257,84.7446768,CO,36,56,45
India,Bihar,Arrah,"New DM Office, Arrah - BSPCB","14-02-2026 12:00:00",25.5626095,84.663264,PM10,18,63,40
India,Bihar,Aurangabad,"Gurdeo Nagar, Aurangabad - BSPCB","14-02-2026 12:00:00",24.75746,84.366208,PM10,NA,NA,NA
India,Bihar,Aurangabad,"Gurdeo Nagar, Aurangabad - BSPCB","14-02-2026 12:00:00",24.75746,84.366208,SO2,6,17,13
India,Bihar,Aurangabad,"Gurdeo Nagar, Aurangabad - BSPCB","14-02-2026 12:00:00",24.75746,84.366208,CO,96,103,102
India,Bihar,Begusarai,"Lohiyanagar, Begusarai - BSPCB","14-02-2026 12:00:00",25.42742023,86.13886079,PM10,52,109,75
India,Bihar,Bettiah,"Kamalnath Nagar, Bettiah - BSPCB","14-02-2026 12:00:00",26.80365,84.51954,PM2.5,42,167,77
India,Bihar,Bettiah,"Kamalnath Nagar, Bettiah - BSPCB","14-02-2026 12:00:00",26.80365,84.51954,PM10,39,117,69
India,Bihar,Bettiah,"Kamalnath Nagar, Bettiah - BSPCB","14-02-2026 12:00:00",26.80365,84.51954,SO2,14,32,17
India,Andhra_Pradesh,Visakhapatnam,"GVM Corporation, Visakhapatnam - APPCB","14-02-2026 12:00:00",17.72,83.3,PM10,114,448,208
India,Andhra_Pradesh,Visakhapatnam,"GVM Corporation, Visakhapatnam - APPCB","14-02-2026 12:00:00",17.72,83.3,SO2,2,103,23
India,Arunachal_Pradesh,Naharlagun,"Naharlagun, Naharlagun - APSPCB","14-02-2026 12:00:00",27.103358,93.679645,NO2,7,8,7
India,Assam,Guwahati,"LGBI Airport, Guwahati - PCBA","14-02-2026 12:00:00",26.10887,91.589544,PM10,56,152,96
India,Assam,Guwahati,"LGBI Airport, Guwahati - PCBA","14-02-2026 12:00:00",26.10887,91.589544,NO2,13,19,15
India,Assam,Guwahati,"LGBI Airport, Guwahati - PCBA","14-02-2026 12:00:00",26.10887,91.589544,NH3,5,6,5
India,Delhi,Delhi,"IIT Delhi, Delhi - IITM","14-02-2026 12:00:00",28.542460,77.191651,PM10,88,224,152
India,Delhi,Delhi,"IIT Delhi, Delhi - IITM","14-02-2026 12:00:00",28.542460,77.191651,CO,31,108,81
India,Delhi,Delhi,"ITO, Delhi - CPCB","14-02-2026 12:00:00",28.628624,77.241060,PM2.5,66,346,217
India,Delhi,Delhi,"ITO, Delhi - CPCB","14-02-2026 12:00:00",28.628624,77.241060,NH3,3,7,4
India,Delhi,Delhi,"ITO, Delhi - CPCB","14-02-2026 12:00:00",28.628624,77.241060,SO2,9,27,20
India,Delhi,Delhi,"ITO, Delhi - CPCB","14-02-2026 12:00:00",28.628624,77.241060,OZONE,18,94,20
India,Delhi,Delhi,"Jahangirpuri, Delhi - DPCC","14-02-2026 12:00:00",28.732820,77.170633,PM2.5,75,362,261
India,Delhi,Delhi,"Jahangirpuri, Delhi - DPCC","14-02-2026 12:00:00",28.732820,77.170633,SO2,45,70,55
India,Delhi,Delhi,"Jawaharlal Nehru Stadium, Delhi - DPCC","14-02-2026 12:00:00",28.580280,77.233829,NH3,13,17,15
India,Delhi,Delhi,"Jawaharlal Nehru Stadium, Delhi - DPCC","14-02-2026 12:00:00",28.580280,77.233829,CO,20,191,45
India,Delhi,Delhi,"Lodhi Road, Delhi - IMD","14-02-2026 12:00:00",28.5918245,77.2273074,CO,60,107,98
India,Delhi,Delhi,"Lodhi Road, Delhi - IMD","14-02-2026 12:00:00",28.5918245,77.2273074,OZONE,19,138,38
India,Delhi,Delhi,"Major Dhyan Chand National Stadium, Delhi - DPCC","14-02-2026 12:00:00",28.611281,77.237738,NH3,16,18,17
India,Delhi,Delhi,"Major Dhyan Chand National Stadium, Delhi - DPCC","14-02-2026 12:00:00",28.611281,77.237738,SO2,4,14,9
India,Chandigarh,Chandigarh,"Sector-25, Chandigarh - CPCC","14-02-2026 12:00:00",30.751462,76.762879,PM10,84,147,112
India,Chandigarh,Chandigarh,"Sector-25, Chandigarh - CPCC","14-02-2026 12:00:00",30.751462,76.762879,NO2,8,23,12
India,Chandigarh,Chandigarh,"Sector-25, Chandigarh - CPCC","14-02-2026 12:00:00",30.751462,76.762879,OZONE,1,54,6
India,Chhattisgarh,Bhilai,"32Bungalows, Bhilai - CECB","14-02-2026 12:00:00",21.194815,81.314770,CO,27,48,37
India,Chhattisgarh,Bhilai,"Civic Center, Bhilai - Bhilai Steel Plant","14-02-2026 12:00:00",21.185571,81.343175,NH3,3,3,3
India,Chhattisgarh,Bhilai,"Hathkhoj, Bhilai - CECB","14-02-2026 12:00:00",21.224231,81.408350,PM2.5,41,230,69
India,Chhattisgarh,Bhilai,"Hathkhoj, Bhilai - CECB","14-02-2026 12:00:00",21.224231,81.408350,PM10,41,182,71
India,Chhattisgarh,Bhilai,"Hathkhoj, Bhilai - CECB","14-02-2026 12:00:00",21.224231,81.408350,NO2,30,98,52
India,Chhattisgarh,Bhilai,"Hathkhoj, Bhilai - CECB","14-02-2026 12:00:00",21.224231,81.408350,SO2,33,105,54
India,Chhattisgarh,Raipur,"AIIMS, Raipur - CECB","14-02-2026 12:00:00",21.258815,81.578979,CO,23,66,59
India,Chhattisgarh,Raipur,"Bhatagaon New ISBT, Raipur - CECB","14-02-2026 12:00:00",21.219665,81.630094,PM2.5,27,80,47
India,Chhattisgarh,Raipur,"Bhatagaon New ISBT, Raipur - CECB","14-02-2026 12:00:00",21.219665,81.630094,PM10,42,123,70
India,Chhattisgarh,Raipur,"Bhatagaon New ISBT, Raipur - CECB","14-02-2026 12:00:00",21.219665,81.630094,NO2,36,76,49
India,Chhattisgarh,Raipur,"Bhatagaon New ISBT, Raipur - CECB","14-02-2026 12:00:00",21.219665,81.630094,CO,32,82,74
India,Chhattisgarh,Tumidih,"OP Jindal Industrial Park, Tumidih - CECB","14-02-2026 12:00:00",22.06631475,83.33820077,PM2.5,48,110,80
India,Chhattisgarh,Tumidih,"OP Jindal Industrial Park, Tumidih - CECB","14-02-2026 12:00:00",22.06631475,83.33820077,SO2,5,17,6
India,Delhi,Delhi,"Anand Vihar, Delhi - DPCC","14-02-2026 12:00:00",28.647622,77.3158090,PM2.5,98,371,257
India,Chhattisgarh,Chhal,"Nawapara SECL Colony, Chhal - CECB","14-02-2026 12:00:00",22.118125,83.140608,OZONE,16,90,19
India,Chhattisgarh,Korba,"Urja Nagar, Korba - CECB","14-02-2026 12:00:00",22.348441,82.549611,NO2,18,28,22
India,Chhattisgarh,Korba,"Urja Nagar, Korba - CECB","14-02-2026 12:00:00",22.348441,82.549611,OZONE,12,26,26
India,Chhattisgarh,Kunjemura,"OP Jindal School, Kunjemura - CECB","14-02-2026 12:00:00",22.126650,83.483212,NO2,12,77,38
India,Chhattisgarh,Kunjemura,"OP Jindal School, Kunjemura - CECB","14-02-2026 12:00:00",22.126650,83.483212,SO2,1,68,15
India,Chhattisgarh,Kunjemura,"OP Jindal School, Kunjemura - CECB","14-02-2026 12:00:00",22.126650,83.483212,OZONE,1,65,10
India,Chhattisgarh,Milupara,"Govt. Higher Secondary School, Milupara - CECB","14-02-2026 12:00:00",22.1910172,83.5197009,NO2,12,59,28
India,Delhi,Delhi,"R K Puram, Delhi - DPCC","14-02-2026 12:00:00",28.563262,77.186937,NH3,7,11,9
India,Delhi,Delhi,"Rohini, Delhi - DPCC","14-02-2026 12:00:00",28.732528,77.119920,NH3,7,12,10
India,Delhi,Delhi,"Shadipur, Delhi - CPCB","14-02-2026 12:00:00",28.6514781,77.1473105,CO,22,119,71
India,Delhi,Delhi,"Sirifort, Delhi - CPCB","14-02-2026 12:00:00",28.5504249,77.2159377,PM2.5,58,349,216
India,Delhi,Delhi,"Sri Aurobindo Marg, Delhi - DPCC","14-02-2026 12:00:00",28.531346,77.190156,PM10,84,329,139
India,Delhi,Delhi,"Vivek Vihar, Delhi - DPCC","14-02-2026 12:00:00",28.672342,77.315260,PM2.5,73,335,234
India,Delhi,Delhi,"Anand Vihar, Delhi - DPCC","14-02-2026 12:00:00",28.647622,77.3158090,CO,56,143,110
India,Delhi,Delhi,"Ashok Vihar, Delhi - DPCC","14-02-2026 12:00:00",28.695381,77.181665,SO2,11,24,16
India,Delhi,Delhi,"Burari Crossing, Delhi - IMD","14-02-2026 12:00:00",28.7256504,77.2011573,NO2,67,153,98
India,Delhi,Delhi,"Burari Crossing, Delhi - IMD","14-02-2026 12:00:00",28.7256504,77.2011573,OZONE,12,171,15
India,Delhi,Delhi,"CRRI Mathura Road, Delhi - IMD","14-02-2026 12:00:00",28.5512005,77.2735737,PM10,84,369,198
India,Delhi,Delhi,"CRRI Mathura Road, Delhi - IMD","14-02-2026 12:00:00",28.5512005,77.2735737,OZONE,3,62,5
India,Delhi,Delhi,"DTU, Delhi - CPCB","14-02-2026 12:00:00",28.7500499,77.1112615,NO2,24,47,38
India,Delhi,Delhi,"Dwarka-Sector 8, Delhi - DPCC ","14-02-2026 12:00:00",28.5710274,77.0719006,NO2,39,148,84
India,Delhi,Delhi,"IHBAS, Dilshad Garden, Delhi - CPCB","14-02-2026 12:00:00",28.6811736,77.3025234,PM2.5,66,240,131
India,Delhi,Delhi,"IHBAS, Dilshad Garden, Delhi - CPCB","14-02-2026 12:00:00",28.6811736,77.3025234,SO2,2,34,18
India,Delhi,Delhi,"IHBAS, Dilshad Garden, Delhi - CPCB","14-02-2026 12:00:00",28.6811736,77.3025234,OZONE,26,31,27
India,Delhi,Delhi,"Mandir Marg, Delhi - DPCC","14-02-2026 12:00:00",28.636429,77.201067,PM10,88,266,158
India,Delhi,Delhi,"Mandir Marg, Delhi - DPCC","14-02-2026 12:00:00",28.636429,77.201067,SO2,2,20,10
India,Delhi,Delhi,"Najafgarh, Delhi - DPCC","14-02-2026 12:00:00",28.570173,76.933762,NH3,12,14,14
India,Delhi,Delhi,"Najafgarh, Delhi - DPCC","14-02-2026 12:00:00",28.570173,76.933762,OZONE,3,162,16
India,Delhi,Delhi,"Nehru Nagar, Delhi - DPCC","14-02-2026 12:00:00",28.567890,77.250515,NH3,5,11,8
India,Delhi,Delhi,"Patparganj, Delhi - DPCC","14-02-2026 12:00:00",28.623763,77.287209,PM10,108,369,212
India,Delhi,Delhi,"Pusa, Delhi - DPCC","14-02-2026 12:00:00",28.639652,77.146275,PM10,120,308,190
India,Delhi,Delhi,"Pusa, Delhi - DPCC","14-02-2026 12:00:00",28.639652,77.146275,NH3,9,35,20
India,Delhi,Delhi,"Pusa, Delhi - DPCC","14-02-2026 12:00:00",28.639652,77.146275,CO,34,119,78
India,Haryana,Faridabad,"Sector 30, Faridabad - HSPCB","14-02-2026 12:00:00",28.4417,77.3217,PM2.5,92,95,93
India,Haryana,Fatehabad,"Huda Sector, Fatehabad - HSPCB","14-02-2026 12:00:00",29.503664,75.467934,NH3,13,15,14
India,Haryana,Fatehabad,"Huda Sector, Fatehabad - HSPCB","14-02-2026 12:00:00",29.503664,75.467934,SO2,10,11,11
India,Haryana,Fatehabad,"Huda Sector, Fatehabad - HSPCB","14-02-2026 12:00:00",29.503664,75.467934,OZONE,53,73,64
India,Haryana,Gurugram,"NISE Gwal Pahari, Gurugram - IMD","14-02-2026 12:00:00",28.422681,77.148944,PM10,53,309,165
India,Haryana,Gurugram,"Sector-51, Gurugram - HSPCB","14-02-2026 12:00:00",28.4227,77.0667,PM2.5,88,484,300
India,Haryana,Gurugram,"Sector-51, Gurugram - HSPCB","14-02-2026 12:00:00",28.4227,77.0667,NO2,6,15,9
India,Haryana,Gurugram,"Sector-51, Gurugram - HSPCB","14-02-2026 12:00:00",28.4227,77.0667,SO2,5,10,8
India,Haryana,Gurugram,"Sector-51, Gurugram - HSPCB","14-02-2026 12:00:00",28.4227,77.0667,OZONE,3,16,7
India,Haryana,Gurugram,"Vikas Sadan, Gurugram - HSPCB","14-02-2026 12:00:00",28.4501238,77.0263051,PM10,139,425,236
India,Haryana,"Charkhi Dadri","Mini Secretariat, Charkhi Dadri - HSPCB","14-02-2026 12:00:00",28.593883,76.270653,PM10,78,141,128
India,Haryana,"Charkhi Dadri","Mini Secretariat, Charkhi Dadri - HSPCB","14-02-2026 12:00:00",28.593883,76.270653,NO2,9,22,15
India,Haryana,Dharuhera,"Municipal Corporation Office, Dharuhera -  HSPCB","14-02-2026 12:00:00",28.206800,76.799700,PM10,50,223,139
India,Haryana,Dharuhera,"Municipal Corporation Office, Dharuhera -  HSPCB","14-02-2026 12:00:00",28.206800,76.799700,NH3,9,26,19
India,Haryana,Dharuhera,"Municipal Corporation Office, Dharuhera -  HSPCB","14-02-2026 12:00:00",28.206800,76.799700,SO2,6,7,7
India,Haryana,Faridabad,"New Industrial Town, Faridabad - HSPCB","14-02-2026 12:00:00",28.39072,77.30059,SO2,8,8,8
India,Haryana,Faridabad,"New Industrial Town, Faridabad - HSPCB","14-02-2026 12:00:00",28.39072,77.30059,OZONE,27,34,31
India,Haryana,Faridabad,"Sector 11, Faridabad - HSPCB","14-02-2026 12:00:00",28.376058,77.315741,SO2,4,129,10
India,Gujarat,Vatva,"Phase-4 GIDC, Vatva - GPCB","14-02-2026 12:00:00",22.969611,72.643500,PM10,78,419,155
India,Gujarat,Vatva,"Phase-4 GIDC, Vatva - GPCB","14-02-2026 12:00:00",22.969611,72.643500,SO2,2,21,15
India,Gujarat,Vatva,"Phase-4 GIDC, Vatva - GPCB","14-02-2026 12:00:00",22.969611,72.643500,CO,16,24,18
India,Gujarat,Vatva,"Phase-4 GIDC, Vatva - GPCB","14-02-2026 12:00:00",22.969611,72.643500,OZONE,30,44,31
India,Haryana,Ambala,"Patti Mehar, Ambala - HSPCB","14-02-2026 12:00:00",30.379589,76.778328,NH3,9,11,10
India,Haryana,Bahadurgarh,"Arya Nagar, Bahadurgarh - HSPCB","14-02-2026 12:00:00",28.6701,76.9254,PM2.5,70,337,241
India,Delhi,Delhi,"Vivek Vihar, Delhi - DPCC","14-02-2026 12:00:00",28.672342,77.315260,OZONE,1,104,5
India,Delhi,Delhi,"Wazirpur, Delhi - DPCC","14-02-2026 12:00:00",28.699793,77.165453,PM10,134,447,257
India,Gujarat,Ahmedabad,"Gyaspur, Ahmedabad - IITM","14-02-2026 12:00:00",22.977134,72.553024,CO,12,102,63
India,Gujarat,Ahmedabad,"Gyaspur, Ahmedabad - IITM","14-02-2026 12:00:00",22.977134,72.553024,OZONE,1,137,13
India,Gujarat,Ahmedabad,"Raikhad, Ahmedabad - IITM","14-02-2026 12:00:00",23.020509,72.579261,PM10,125,197,156
India,Gujarat,Ahmedabad,"Raikhad, Ahmedabad - IITM","14-02-2026 12:00:00",23.020509,72.579261,OZONE,1,74,26
India,Gujarat,Mehsana,"Sadanand Nagar, Mehsana - Nexteng Enviro","14-02-2026 12:00:00",23.593150,72.372792,PM10,75,183,128
India,Gujarat,Rajkot,"Mavdi, Rajkot - Nexteng Enviro ","14-02-2026 12:00:00",22.248853,70.776774,NO2,15,98,50
India,Gujarat,Rajkot,"Mavdi, Rajkot - Nexteng Enviro ","14-02-2026 12:00:00",22.248853,70.776774,SO2,19,130,57
India,Gujarat,Vadodara,"Bapunagar, Vadodara - Nexteng Enviro","14-02-2026 12:00:00",22.320153,73.216285,PM10,101,179,139
India,Gujarat,Vadodara,"Bapunagar, Vadodara - Nexteng Enviro","14-02-2026 12:00:00",22.320153,73.216285,SO2,7,9,8
India,Gujarat,Vadodara,"Bapunagar, Vadodara - Nexteng Enviro","14-02-2026 12:00:00",22.320153,73.216285,OZONE,NA,NA,NA
India,Gujarat,Ahmedabad,"SAC ISRO Bopal, Ahmedabad - IITM","14-02-2026 12:00:00",23.041137,72.456691,CO,8,31,16
India,Gujarat,Ahmedabad,"SAC ISRO Satellite, Ahmedabad - IITM","14-02-2026 12:00:00",23.023389,72.515201,PM2.5,85,193,131
India,Gujarat,Ahmedabad,"SAC ISRO Satellite, Ahmedabad - IITM","14-02-2026 12:00:00",23.023389,72.515201,NO2,5,45,19
India,Gujarat,Ahmedabad,"SAC ISRO Satellite, Ahmedabad - IITM","14-02-2026 12:00:00",23.023389,72.515201,CO,10,84,56
India,Gujarat,Ahmedabad,"SVPI Airport Hansol, Ahmedabad - IITM","14-02-2026 12:00:00",23.076793,72.627874,SO2,7,25,11
India,Gujarat,Ahmedabad,"SVPI Airport Hansol, Ahmedabad - IITM","14-02-2026 12:00:00",23.076793,72.627874,OZONE,2,83,16
India,Haryana,Kaithal,"Rishi Nagar, Kaithal - HSPCB","14-02-2026 12:00:00",29.8006,76.4155,NH3,3,6,5
India,Haryana,Mandikhera,"General Hospital, Mandikhera(Nuh) - HSPCB","14-02-2026 12:00:00",27.9002,76.9938,CO,64,85,74
India,Haryana,Manesar,"Sector-2 IMT, Manesar - HSPCB","14-02-2026 12:00:00",28.360699,76.936090,PM10,47,428,175
India,Haryana,Manesar,"Sector-2 IMT, Manesar - HSPCB","14-02-2026 12:00:00",28.360699,76.936090,NO2,46,56,51
India,Gujarat,Bhavnagar,"Vidhyanagar, Bhavnagar - Nexteng Enviro","14-02-2026 12:00:00",21.755417,72.139056,OZONE,13,25,14
India,Gujarat,Gandhinagar,"Sector-10, Gandhinagar - GPCB","14-02-2026 12:00:00",23.221714,72.654328,PM10,79,256,152
India,Karnataka,Mysuru,"Hebbal 1st Stage, Mysuru - KSPCB","14-02-2026 12:00:00",12.21041,76.37376,PM2.5,26,57,39
India,Karnataka,Mysuru,"Hebbal 1st Stage, Mysuru - KSPCB","14-02-2026 12:00:00",12.21041,76.37376,CO,14,59,20
India,Karnataka,Mysuru,"Hebbal 1st Stage, Mysuru - KSPCB","14-02-2026 12:00:00",12.21041,76.37376,OZONE,15,161,55
India,Karnataka,Ramanagara,"Vijay Nagar, Ramanagara - KSPCB","14-02-2026 12:00:00",12.733409,77.298051,PM10,10,92,52
India,Karnataka,Shivamogga,"Vinoba Nagara, Shivamogga - KSPCB","14-02-2026 12:00:00",13.940000,75.555917,PM2.5,28,53,33
India,Karnataka,Shivamogga,"Vinoba Nagara, Shivamogga - KSPCB","14-02-2026 12:00:00",13.940000,75.555917,NH3,3,4,3
India,Karnataka,Shivamogga,"Vinoba Nagara, Shivamogga - KSPCB","14-02-2026 12:00:00",13.940000,75.555917,OZONE,8,59,24
India,Karnataka,Tumakuru,"Thimmalapura, Tumakuru - KSPCB","14-02-2026 12:00:00",13.377516,77.099072,NO2,31,32,32
India,Karnataka,Vijayapura,"Ibrahimpur, Vijayapura - KSPCB","14-02-2026 12:00:00",16.802639,75.722694,NO2,11,12,11
India,Karnataka,Yadgir,"Collector Office, Yadgir - KSPCB","14-02-2026 12:00:00",16.7602,77.1428,PM10,28,128,77
India,Karnataka,Yadgir,"Collector Office, Yadgir - KSPCB","14-02-2026 12:00:00",16.7602,77.1428,SO2,5,18,12
India,Karnataka,Chikkaballapur,"Chikkaballapur Rural, Chikkaballapur - KSPCB","14-02-2026 12:00:00",13.428828,77.731418,PM10,15,61,37
India,Karnataka,Chikkaballapur,"Chikkaballapur Rural, Chikkaballapur - KSPCB","14-02-2026 12:00:00",13.428828,77.731418,NO2,11,91,43
India,Karnataka,Chikkaballapur,"Chikkaballapur Rural, Chikkaballapur - KSPCB","14-02-2026 12:00:00",13.428828,77.731418,CO,1,29,12
India,Karnataka,Dharwad,"Kalabhavan, Dharwad - KSPCB","14-02-2026 12:00:00",15.459706,75.008381,PM10,83,106,93
India,Karnataka,Dharwad,"Kalabhavan, Dharwad - KSPCB","14-02-2026 12:00:00",15.459706,75.008381,NO2,28,28,28
India,Karnataka,Dharwad,"Kalabhavan, Dharwad - KSPCB","14-02-2026 12:00:00",15.459706,75.008381,CO,38,92,62
India,Karnataka,Kalaburagi,"Mahatma Basaveswar Colony, Kalaburgi - KSPCB","14-02-2026 12:00:00",17.336318,76.847397,PM2.5,21,61,47
India,Karnataka,Kalaburagi,"Mahatma Basaveswar Colony, Kalaburgi - KSPCB","14-02-2026 12:00:00",17.336318,76.847397,CO,32,71,46
India,Karnataka,Kalaburagi,"Mahatma Basaveswar Colony, Kalaburgi - KSPCB","14-02-2026 12:00:00",17.336318,76.847397,OZONE,11,40,14
India,Karnataka,Madikeri,"Stuart Hill, Madikeri - KSPCB","14-02-2026 12:00:00",12.415911,75.735050,OZONE,2,5,3
India,Karnataka,Yadgir,"Collector Office, Yadgir - KSPCB","14-02-2026 12:00:00",16.7602,77.1428,OZONE,18,19,18
India,Kerala,Kannur,"Thavakkara, Kannur - Kerala PCB","14-02-2026 12:00:00",11.875000,75.373200,SO2,4,5,5
India,Kerala,Kollam,"Polayathode, Kollam - Kerala PCB","14-02-2026 12:00:00",8.8787,76.6073,CO,14,17,15
India,Kerala,Thiruvananthapuram,"Kariavattom, Thiruvananthapuram - Kerala PCB","14-02-2026 12:00:00",8.563700,76.886500,NH3,NA,NA,NA
India,Kerala,Thiruvananthapuram,"Kariavattom, Thiruvananthapuram - Kerala PCB","14-02-2026 12:00:00",8.563700,76.886500,CO,20,24,21
India,Kerala,Thiruvananthapuram,"Plammoodu, Thiruvananthapuram - Kerala PCB","14-02-2026 12:00:00",8.5149093,76.9435879,SO2,12,27,18
India,Kerala,Thrissur,"Corporation Ground, Thrissur - Kerala PCB","14-02-2026 12:00:00",10.532400,76.215900,PM2.5,61,81,68
India,Kerala,Thrissur,"Corporation Ground, Thrissur - Kerala PCB","14-02-2026 12:00:00",10.532400,76.215900,SO2,1,1,1
India,"Madhya Pradesh",Bhopal,"Idgah Hills, Bhopal - MPPCB","14-02-2026 12:00:00",23.264759,77.381568,NO2,17,68,29
India,"Madhya Pradesh",Bhopal,"Idgah Hills, Bhopal - MPPCB","14-02-2026 12:00:00",23.264759,77.381568,NH3,1,1,1
India,"Madhya Pradesh",Bhopal,"Idgah Hills, Bhopal - MPPCB","14-02-2026 12:00:00",23.264759,77.381568,OZONE,23,95,60
India,"Madhya Pradesh",Bhopal,"Paryavaran Parisar, Bhopal - MPPCB","14-02-2026 12:00:00",23.210494,77.425409,PM10,96,271,159
India,"Madhya Pradesh",Bhopal,"T T Nagar, Bhopal - MPPCB","14-02-2026 12:00:00",23.233584,77.400574,PM2.5,68,140,89
India,"Madhya Pradesh",Bhopal,"T T Nagar, Bhopal - MPPCB","14-02-2026 12:00:00",23.233584,77.400574,NO2,22,56,33
India,"Madhya Pradesh",Dewas,"Bhopal Chauraha, Dewas - MPPCB","14-02-2026 12:00:00",22.9682591,76.064118,CO,15,74,26
India,Haryana,Palwal,"Shyam Nagar, Palwal - HSPCB","14-02-2026 12:00:00",28.1485564,77.3320667,NO2,23,24,24
India,Haryana,Panchgaon,"Amity University, Panchgaon - IITM","14-02-2026 12:00:00",28.3153,76.9143,NH3,3,20,9
India,Haryana,Panchgaon,"Amity University, Panchgaon - IITM","14-02-2026 12:00:00",28.3153,76.9143,OZONE,1,81,14
India,Haryana,Panchkula,"Sector-6, Panchkula - HSPCB ","14-02-2026 12:00:00",30.7057778,76.8531805555555,SO2,14,16,15
India,Haryana,Panchkula,"Sector-6, Panchkula - HSPCB ","14-02-2026 12:00:00",30.7057778,76.8531805555555,CO,8,29,25
India,Haryana,Rohtak,"MD University, Rohtak - HSPCB","14-02-2026 12:00:00",28.52123,76.37138,PM2.5,55,205,140
India,Haryana,Rohtak,"MD University, Rohtak - HSPCB","14-02-2026 12:00:00",28.52123,76.37138,NO2,10,13,11
India,Haryana,Rohtak,"MD University, Rohtak - HSPCB","14-02-2026 12:00:00",28.52123,76.37138,CO,32,39,34
India,Karnataka,Bagalkot,"Vidayagiri, Bagalkot - KSPCB","14-02-2026 12:00:00",16.172806,75.659694,NO2,11,12,12
India,Karnataka,Bagalkot,"Vidayagiri, Bagalkot - KSPCB","14-02-2026 12:00:00",16.172806,75.659694,CO,4,43,30
India,Karnataka,Bengaluru,"BTM Layout, Bengaluru - CPCB","14-02-2026 12:00:00",12.9135218,77.5950804,NH3,9,39,24
India,Karnataka,Bengaluru,"BWSSB Kadabesanahalli, Bengaluru - CPCB","14-02-2026 12:00:00",12.9352049,77.6814488,PM10,102,184,138
India,Karnataka,Bengaluru,"BWSSB Kadabesanahalli, Bengaluru - CPCB","14-02-2026 12:00:00",12.9352049,77.6814488,CO,38,39,38
India,Karnataka,Bengaluru,"Bapuji Nagar, Bengaluru - KSPCB","14-02-2026 12:00:00",12.951913,77.539784,PM2.5,8,48,30
India,Karnataka,Bengaluru,"Bapuji Nagar, Bengaluru - KSPCB","14-02-2026 12:00:00",12.951913,77.539784,OZONE,39,125,64
India,Karnataka,Bengaluru,"RVCE-Mailasandra, Bengaluru - KSPCB","14-02-2026 12:00:00",12.921418,77.502466,NH3,3,4,4
India,Karnataka,Bengaluru,"RVCE-Mailasandra, Bengaluru - KSPCB","14-02-2026 12:00:00",12.921418,77.502466,OZONE,23,25,23
India,Karnataka,Bengaluru,"Sanegurava Halli, Bengaluru - KSPCB","14-02-2026 12:00:00",12.990328,77.5431385,NO2,17,18,18
India,Karnataka,Bengaluru,"Sanegurava Halli, Bengaluru - KSPCB","14-02-2026 12:00:00",12.990328,77.5431385,CO,12,66,24
India,Karnataka,Bengaluru,"Silk Board, Bengaluru - KSPCB","14-02-2026 12:00:00",12.917348,77.622813,PM2.5,33,61,48
India,Karnataka,Chamarajanagar,"Urban, Chamarajanagar - KSPCB","14-02-2026 12:00:00",11.55358,76.55521,CO,15,25,22
India,Haryana,"Yamuna Nagar","Gobind Pura, Yamuna Nagar - HSPCB","14-02-2026 12:00:00",30.1480566,77.2893471,NH3,4,4,4
India,"Himachal Pradesh",Baddi,"HIMUDA Complex Phase-1, Baddi - HPPCB","14-02-2026 12:00:00",30.943887,76.801991,NH3,5,8,6
India,Jammu_and_Kashmir,Srinagar,"Khunmoh, Srinagar - JKPCC","14-02-2026 12:00:00",34.06313,74.96017,PM2.5,30,53,41
India,Karnataka,Bengaluru,"Hombegowda Nagar, Bengaluru - KSPCB","14-02-2026 12:00:00",12.938539,77.590100,OZONE,6,33,16
India,Karnataka,Bengaluru,"Jayanagar 5th Block, Bengaluru - KSPCB","14-02-2026 12:00:00",12.920984,77.584908,NO2,8,49,25
India,Karnataka,Bengaluru,"Jigani, Bengaluru - KSPCB","14-02-2026 12:00:00",12.7816279,77.6299145,OZONE,25,27,25
India,"Madhya Pradesh",Sagar,"Deen Dayal Nagar, Sagar - MPPCB","14-02-2026 12:00:00",23.8640158,78.80289321,SO2,4,8,6
India,"Madhya Pradesh",Singrauli,"Suryakiran Bhawan NCL, Singrauli - MPPCB","14-02-2026 12:00:00",24.108970,82.645580,PM2.5,64,334,190
India,"Madhya Pradesh",Singrauli,"Suryakiran Bhawan NCL, Singrauli - MPPCB","14-02-2026 12:00:00",24.108970,82.645580,PM10,113,298,184
India,"Madhya Pradesh",Ujjain,"Mahashweta Nagar, Ujjain - MPPCB","14-02-2026 12:00:00",23.1633321,75.800225,PM10,80,206,125
India,Maharashtra,Ahmednagar,"Tarakpur, Ahmednagar - MPCB","14-02-2026 12:00:00",19.10122,74.73339,PM10,76,172,120
India,Maharashtra,Ahmednagar,"Tarakpur, Ahmednagar - MPCB","14-02-2026 12:00:00",19.10122,74.73339,SO2,13,25,19
India,Maharashtra,Ahmednagar,"Tarakpur, Ahmednagar - MPCB","14-02-2026 12:00:00",19.10122,74.73339,OZONE,2,127,27
India,Maharashtra,Akola,"Ramdaspeth, Akola - MPCB","14-02-2026 12:00:00",20.719516,77.000253,PM2.5,43,162,79
India,Maharashtra,Akola,"Ramdaspeth, Akola - MPCB","14-02-2026 12:00:00",20.719516,77.000253,PM10,61,187,107
India,Maharashtra,Amravati,"Shivneri Colony, Amravati - MPCB","14-02-2026 12:00:00",20.9402359,77.7895248,PM10,100,126,112
India,Maharashtra,Belapur,"CBD Belapur, Belapur - MPCB","14-02-2026 12:00:00",19.0243902,73.0406721,NO2,NA,NA,NA
India,Maharashtra,Belapur,"CBD Belapur, Belapur - MPCB","14-02-2026 12:00:00",19.0243902,73.0406721,OZONE,1,112,5
India,Maharashtra,Bhiwandi,"Gokul Nagar, Bhiwandi - MPCB","14-02-2026 12:00:00",19.309073,73.057223,NH3,4,9,6
India,Maharashtra,Boisar,"Khaira, Boisar - MPCB","14-02-2026 12:00:00",19.786089,72.757971,NH3,6,7,6
India,Maharashtra,Boisar,"Khaira, Boisar - MPCB","14-02-2026 12:00:00",19.786089,72.757971,OZONE,6,99,20
India,Maharashtra,Chandrapur,"Chauhan Colony, Chandrapur - MPCB","14-02-2026 12:00:00",19.962900,79.298714,PM10,120,223,151
India,Maharashtra,Chandrapur,"Chauhan Colony, Chandrapur - MPCB","14-02-2026 12:00:00",19.962900,79.298714,NO2,29,30,29
India,Maharashtra,Chandrapur,"Chauhan Colony, Chandrapur - MPCB","14-02-2026 12:00:00",19.962900,79.298714,SO2,38,38,38
India,Maharashtra,Chandrapur,"MIDC Khutala, Chandrapur - MPCB","14-02-2026 12:00:00",19.9775302,79.2337086,NH3,1,3,2
India,Maharashtra,Dhule,"Deopur, Dhule - MPCB","14-02-2026 12:00:00",20.918946,74.776388,PM10,91,151,112
India,"Madhya Pradesh",Indore,"Residency Area, Indore - IMC","14-02-2026 12:00:00",22.7084,75.8815,SO2,1,4,2
India,"Madhya Pradesh",Jabalpur,"Govindh Bhavan Colony, Jabalpur - JMC","14-02-2026 12:00:00",23.163174,79.973061,PM2.5,50,87,65
India,"Madhya Pradesh",Jabalpur,"Govindh Bhavan Colony, Jabalpur - JMC","14-02-2026 12:00:00",23.163174,79.973061,SO2,3,7,5
India,"Madhya Pradesh",Jabalpur,"Gupteshwar, Jabalpur - JMC","14-02-2026 12:00:00",23.142888,79.916147,PM2.5,62,108,88
India,"Madhya Pradesh",Jabalpur,"Marhatal, Jabalpur - MPPCB","14-02-2026 12:00:00",23.168606,79.932247,PM2.5,68,217,118
India,"Madhya Pradesh",Jabalpur,"Marhatal, Jabalpur - MPPCB","14-02-2026 12:00:00",23.168606,79.932247,NH3,2,2,2
India,"Madhya Pradesh",Jabalpur,"Marhatal, Jabalpur - MPPCB","14-02-2026 12:00:00",23.168606,79.932247,OZONE,18,70,28
India,"Madhya Pradesh",Jabalpur,"Suhagi, Jabalpur - JMC","14-02-2026 12:00:00",23.218135,79.957770,PM2.5,72,157,104
India,"Madhya Pradesh",Jabalpur,"Suhagi, Jabalpur - JMC","14-02-2026 12:00:00",23.218135,79.957770,PM10,56,136,93
India,"Madhya Pradesh",Gwalior,"Deen Dayal Nagar, Gwalior - MPPCB","14-02-2026 12:00:00",26.259242,78.216432,CO,64,107,83
India,"Madhya Pradesh",Gwalior,"Maharaj Bada, Gwalior - MPPCB","14-02-2026 12:00:00",26.200388,78.147714,PM10,85,274,152
India,"Madhya Pradesh",Indore,"Airport Area, Indore - IMC","14-02-2026 12:00:00",22.7289,75.8076,NO2,28,95,68
India,"Madhya Pradesh",Indore,"Airport Area, Indore - IMC","14-02-2026 12:00:00",22.7289,75.8076,CO,2,42,34
India,"Madhya Pradesh",Indore,"Airport Area, Indore - IMC","14-02-2026 12:00:00",22.7289,75.8076,OZONE,5,19,6
India,"Madhya Pradesh",Indore,"Chhoti Gwaltoli, Indore - MPPCB","14-02-2026 12:00:00",22.4310,75.5213,PM10,102,237,168
India,"Madhya Pradesh",Indore,"Chhoti Gwaltoli, Indore - MPPCB","14-02-2026 12:00:00",22.4310,75.5213,NO2,54,244,160
India,"Madhya Pradesh",Indore,"Chhoti Gwaltoli, Indore - MPPCB","14-02-2026 12:00:00",22.4310,75.5213,OZONE,3,57,13
India,Maharashtra,Mira-Bhayandar,"Bhayandar West, Mira-Bhayandar - MPCB","14-02-2026 12:00:00",19.296481,72.840923,NH3,NA,NA,NA
India,Maharashtra,Mira-Bhayandar,"Bhayandar West, Mira-Bhayandar - MPCB","14-02-2026 12:00:00",19.296481,72.840923,CO,NA,NA,NA
India,Maharashtra,Mumbai,"Bandra Kurla Complex, Mumbai - MPCB","14-02-2026 12:00:00",19.065931,72.862131,NH3,7,8,7
India,Maharashtra,Mumbai,"Borivali East, Mumbai - MPCB","14-02-2026 12:00:00",19.2243333,72.8658113,CO,14,19,16
India,Maharashtra,Mumbai,"Byculla, Mumbai - BMC","14-02-2026 12:00:00",18.9767,72.8380,NO2,43,139,89
India,Maharashtra,Mumbai,"Byculla, Mumbai - BMC","14-02-2026 12:00:00",18.9767,72.8380,NH3,9,35,20
India,Maharashtra,Mumbai,"Byculla, Mumbai - BMC","14-02-2026 12:00:00",18.9767,72.8380,CO,52,110,103
India,Maharashtra,Latur,"Sawe Wadi, Latur - MPCB","14-02-2026 12:00:00",18.39963,76.57452,PM2.5,49,106,81
India,Maharashtra,Latur,"Sawe Wadi, Latur - MPCB","14-02-2026 12:00:00",18.39963,76.57452,NO2,16,66,35
India,Maharashtra,Mahad,"Kamble Tarf Birwadi, Mahad - MPCB","14-02-2026 12:00:00",18.1023399,73.4783687,PM2.5,75,243,110
India,Maharashtra,Mahad,"Kamble Tarf Birwadi, Mahad - MPCB","14-02-2026 12:00:00",18.1023399,73.4783687,PM10,70,215,107
India,Maharashtra,Mahad,"Kamble Tarf Birwadi, Mahad - MPCB","14-02-2026 12:00:00",18.1023399,73.4783687,NH3,3,10,6
India,Maharashtra,Mahad,"Kamble Tarf Birwadi, Mahad - MPCB","14-02-2026 12:00:00",18.1023399,73.4783687,OZONE,20,72,25
India,Maharashtra,Malegaon,"Mahesh Nagar, Malegaon - MPCB","14-02-2026 12:00:00",20.555712,74.529236,NH3,1,1,1
India,"Madhya Pradesh",Mandideep,"Sector-D Industrial Area, Mandideep - MPPCB","14-02-2026 12:00:00",23.108440,77.511428,PM2.5,85,433,272
India,"Madhya Pradesh",Pithampur,"Sector-2 Industrial Area, Pithampur - MPPCB","14-02-2026 12:00:00",22.624758,75.675238,PM10,84,398,202
India,"Madhya Pradesh",Pithampur,"Sector-2 Industrial Area, Pithampur - MPPCB","14-02-2026 12:00:00",22.624758,75.675238,NO2,36,70,51
India,"Madhya Pradesh",Pithampur,"Sector-2 Industrial Area, Pithampur - MPPCB","14-02-2026 12:00:00",22.624758,75.675238,SO2,26,36,31
India,"Madhya Pradesh",Sagar,"Civil Lines, Sagar - MPPCB","14-02-2026 12:00:00",23.838586,78.759431,PM2.5,87,267,137
India,"Madhya Pradesh",Sagar,"Civil Lines, Sagar - MPPCB","14-02-2026 12:00:00",23.838586,78.759431,CO,28,60,33
India,Maharashtra,Jalgaon,"Prabhat Colony, Jalgaon - MPCB","14-02-2026 12:00:00",21.001264,75.565602,NO2,3,42,16
India,Maharashtra,Jalna,"Old MIDC, Jalna - MPCB","14-02-2026 12:00:00",19.854616,75.905894,NO2,5,19,10
India,Maharashtra,Kolhapur,"Shivaji University, Kolhapur - MPCB","14-02-2026 12:00:00",16.6870449,74.2505872,PM10,37,275,87
India,Maharashtra,Aurangabad,"MIDC Chilkalthana, Aurangabad - MPCB","14-02-2026 12:00:00",19.875620,75.387310,SO2,11,19,14
India,Maharashtra,Aurangabad,"MIDC Chilkalthana, Aurangabad - MPCB","14-02-2026 12:00:00",19.875620,75.387310,CO,12,90,41
India,Maharashtra,Aurangabad,"MIDC Chilkalthana, Aurangabad - MPCB","14-02-2026 12:00:00",19.875620,75.387310,OZONE,11,65,25
India,Maharashtra,Aurangabad,"More Chowk Waluj, Aurangabad - MPCB","14-02-2026 12:00:00",19.8389439,75.244448,CO,4,135,36
India,Maharashtra,Pimpri-Chinchwad,"Park Street Wakad, Pimpri Chinchwad - MPCB","14-02-2026 12:00:00",18.59051,73.77946,NO2,50,131,83
India,Maharashtra,Pimpri-Chinchwad,"Park Street Wakad, Pimpri Chinchwad - MPCB","14-02-2026 12:00:00",18.59051,73.77946,OZONE,2,150,56
India,Maharashtra,Pimpri-Chinchwad,"Savta Mali Nagar, Pimpri-Chinchwad - IITM","14-02-2026 12:00:00",18.614767,73.799516,CO,38,102,79
India,Maharashtra,Pimpri-Chinchwad,"Thergaon, Pimpri Chinchwad - MPCB","14-02-2026 12:00:00",18.616318,73.765797,NH3,7,13,9
India,Maharashtra,Pune,"Bhosari, Pune - IITM","14-02-2026 12:00:00",18.640051,73.848956,CO,28,120,89
India,Maharashtra,Pune,"Dhankawadi, Pune - IITM","14-02-2026 12:00:00",18.459883,73.852193,PM10,65,187,139
India,Maharashtra,Pune,"Dhankawadi, Pune - IITM","14-02-2026 12:00:00",18.459883,73.852193,OZONE,5,115,20
India,Maharashtra,Pune,"Hadapsar, Pune - IITM","14-02-2026 12:00:00",18.501793,73.927532,PM10,NA,NA,NA
India,Maharashtra,Pune,"Hadapsar, Pune - IITM","14-02-2026 12:00:00",18.501793,73.927532,NO2,48,120,87
India,Maharashtra,Pune,"Hadapsar, Pune - IITM","14-02-2026 12:00:00",18.501793,73.927532,OZONE,1,89,6
India,Maharashtra,Pune,"Katraj Dairy, Pune - MPCB","14-02-2026 12:00:00",18.454450,73.854155,NO2,20,51,38
India,Maharashtra,Pune,"Katraj Dairy, Pune - MPCB","14-02-2026 12:00:00",18.454450,73.854155,NH3,3,11,5
India,Maharashtra,Pune,"Katraj Dairy, Pune - MPCB","14-02-2026 12:00:00",18.454450,73.854155,SO2,3,4,3
India,Maharashtra,Nagpur,"Mahal, Nagpur - MPCB","14-02-2026 12:00:00",21.14472,79.107595,SO2,6,56,34
India,Maharashtra,Nagpur,"Ram Nagar, Nagpur - MPCB","14-02-2026 12:00:00",21.143383,79.048912,PM10,133,185,161
India,Maharashtra,Nagpur,"Ram Nagar, Nagpur - MPCB","14-02-2026 12:00:00",21.143383,79.048912,OZONE,17,80,26
India,Maharashtra,Nanded,"Sneh Nagar, Nanded - MPCB","14-02-2026 12:00:00",19.173852,77.296291,PM2.5,97,158,128
India,Maharashtra,Nanded,"Sneh Nagar, Nanded - MPCB","14-02-2026 12:00:00",19.173852,77.296291,NO2,14,18,16
India,Maharashtra,Nanded,"Sneh Nagar, Nanded - MPCB","14-02-2026 12:00:00",19.173852,77.296291,NH3,3,5,4
India,Maharashtra,Nanded,"Sneh Nagar, Nanded - MPCB","14-02-2026 12:00:00",19.173852,77.296291,SO2,1,1,1
India,Maharashtra,Nanded,"Sneh Nagar, Nanded - MPCB","14-02-2026 12:00:00",19.173852,77.296291,OZONE,14,111,39
India,Maharashtra,Nashik,"Hirawadi, Nashik - MPCB","14-02-2026 12:00:00",20.021503,73.813844,PM2.5,62,194,99
India,Maharashtra,Nashik,"Hirawadi, Nashik - MPCB","14-02-2026 12:00:00",20.021503,73.813844,CO,50,88,71
India,Maharashtra,Mumbai,"Kandivali East, Mumbai - MPCB","14-02-2026 12:00:00",19.205800,72.868200,OZONE,18,18,18
India,Maharashtra,Mumbai,"Kandivali West, Mumbai - BMC","14-02-2026 12:00:00",19.215859,72.831718,NH3,NA,NA,NA
India,Maharashtra,Mumbai,"Kandivali West, Mumbai - BMC","14-02-2026 12:00:00",19.215859,72.831718,OZONE,NA,NA,NA
India,Maharashtra,Mumbai,"Kherwadi_Bandra East, Mumbai - MPCB","14-02-2026 12:00:00",19.0632143,72.8456324,PM2.5,83,240,140
India,Maharashtra,Mumbai,"Kherwadi_Bandra East, Mumbai - MPCB","14-02-2026 12:00:00",19.0632143,72.8456324,PM10,83,154,127
India,Maharashtra,Mumbai,"Khindipada-Bhandup West, Mumbai - IITM","14-02-2026 12:00:00",19.1653323,72.922099,NO2,21,63,34
India,Maharashtra,Mumbai,"Kurla, Mumbai - MPCB","14-02-2026 12:00:00",19.0863,72.8888,CO,12,32,25
India,Maharashtra,Mumbai,"Kurla, Mumbai - MPCB","14-02-2026 12:00:00",19.0863,72.8888,OZONE,28,29,28
India,Maharashtra,"Navi Mumbai","Sanpada, Navi Mumbai - MPCB","14-02-2026 12:00:00",19.0575752,73.0151367,CO,28,113,88
India,Maharashtra,"Navi Mumbai","Sector-2E Kalamboli, Navi Mumbai - MPCB","14-02-2026 12:00:00",19.02579,73.10297,NO2,5,19,12
India,Maharashtra,"Navi Mumbai","Tondare-Taloja, Navi Mumbai - MPCB","14-02-2026 12:00:00",19.0630,73.1209,PM2.5,83,205,124
India,Maharashtra,Parbhani,"Masoom Colony, Parbhani - MPCB","14-02-2026 12:00:00",19.265594,76.761463,PM10,57,196,88
India,Maharashtra,Pimpri-Chinchwad,"Gavalinagar, Pimpri Chinchwad - MPCB","14-02-2026 12:00:00",18.63673,73.82487,NO2,NA,NA,NA
India,Maharashtra,Mumbai,"Siddharth Nagar-Worli, Mumbai - IITM","14-02-2026 12:00:00",19.000083,72.813993,PM2.5,77,137,101
India,Maharashtra,Mumbai,"Siddharth Nagar-Worli, Mumbai - IITM","14-02-2026 12:00:00",19.000083,72.813993,NO2,26,110,66
India,Maharashtra,Mumbai,"Vile Parle West, Mumbai - MPCB","14-02-2026 12:00:00",19.10861,72.83622,PM2.5,61,93,76
India,Maharashtra,Mumbai,"Vile Parle West, Mumbai - MPCB","14-02-2026 12:00:00",19.10861,72.83622,NH3,6,6,6
India,Maharashtra,Nagpur,"Ambazari, Nagpur - MPCB","14-02-2026 12:00:00",21.121801,79.04952,PM2.5,181,307,250
India,Maharashtra,Nagpur,"Mahal, Nagpur - MPCB","14-02-2026 12:00:00",21.14472,79.107595,PM2.5,152,279,215
India,Maharashtra,"Navi Mumbai","Kopripada-Vashi, Navi Mumbai - MPCB","14-02-2026 12:00:00",19.090337,73.014232,PM10,NA,NA,NA
India,Maharashtra,"Navi Mumbai","Kopripada-Vashi, Navi Mumbai - MPCB","14-02-2026 12:00:00",19.090337,73.014232,SO2,NA,NA,NA
India,Maharashtra,"Navi Mumbai","Kopripada-Vashi, Navi Mumbai - MPCB","14-02-2026 12:00:00",19.090337,73.014232,CO,20,31,28
India,Maharashtra,"Navi Mumbai","Mahape, Navi Mumbai - MPCB","14-02-2026 12:00:00",19.1135051,73.008978,PM10,105,175,136
India,Maharashtra,"Navi Mumbai","Mahape, Navi Mumbai - MPCB","14-02-2026 12:00:00",19.1135051,73.008978,NO2,84,86,85
India,Maharashtra,"Navi Mumbai","Sanpada, Navi Mumbai - MPCB","14-02-2026 12:00:00",19.0575752,73.0151367,PM10,102,205,160
India,Maharashtra,Mumbai,"Mindspace-Malad West, Mumbai - MPCB","14-02-2026 12:00:00",19.1878657,72.8304069,NO2,18,138,60
India,Maharashtra,Mumbai,"Mindspace-Malad West, Mumbai - MPCB","14-02-2026 12:00:00",19.1878657,72.8304069,CO,28,104,71
India,Maharashtra,Mumbai,"Mindspace-Malad West, Mumbai - MPCB","14-02-2026 12:00:00",19.1878657,72.8304069,OZONE,8,62,9
India,Maharashtra,Mumbai,"Mulund West, Mumbai - MPCB","14-02-2026 12:00:00",19.1750,72.9419,PM10,NA,NA,NA
India,Maharashtra,Mumbai,"Sewri, Mumbai - BMC","14-02-2026 12:00:00",19.000084,72.856730,SO2,NA,NA,NA
India,Maharashtra,Mumbai,"Sewri, Mumbai - BMC","14-02-2026 12:00:00",19.000084,72.856730,CO,20,62,46
India,Maharashtra,Mumbai,"Chakala-Andheri East, Mumbai - IITM","14-02-2026 12:00:00",19.11074,72.86084,PM2.5,100,172,145
India,Maharashtra,Mumbai,"Chakala-Andheri East, Mumbai - IITM","14-02-2026 12:00:00",19.11074,72.86084,OZONE,1,121,28
India,Maharashtra,Mumbai,"Chhatrapati Shivaji Intl. Airport (T2), Mumbai - MPCB","14-02-2026 12:00:00",19.10078,72.87462,NO2,1,2,1
India,Maharashtra,Mumbai,"Colaba, Mumbai - MPCB","14-02-2026 12:00:00",18.910000,72.820000,PM10,62,138,103
India,Maharashtra,Mumbai,"Deonar, Mumbai - IITM","14-02-2026 12:00:00",19.04946,72.9230,PM2.5,62,180,106
India,Maharashtra,Mumbai,"Deonar, Mumbai - IITM","14-02-2026 12:00:00",19.04946,72.9230,NH3,13,18,16
India,Maharashtra,Mumbai,"Deonar, Mumbai - IITM","14-02-2026 12:00:00",19.04946,72.9230,OZONE,1,103,14
India,Maharashtra,Mumbai,"Ghatkopar, Mumbai - BMC","14-02-2026 12:00:00",19.083694,72.920967,CO,8,60,42
India,Odisha,Tensa,"Barsua Iron Ore Mines, Tensa - OSPCB","14-02-2026 12:00:00",21.869985,85.167016,SO2,22,101,44
India,Puducherry,Puducherry,"Jawahar Nagar, Puducherry - PPCC","14-02-2026 12:00:00",11.9309,79.8027,OZONE,16,81,32
India,Punjab,Amritsar,"Golden Temple, Amritsar - PPCB","14-02-2026 12:00:00",31.620000,74.876512,NH3,6,10,7
India,Punjab,Jalandhar,"Civil Line, Jalandhar - PPCB","14-02-2026 12:00:00",31.321907,75.578914,NH3,3,4,4
India,Punjab,Jalandhar,"Civil Line, Jalandhar - PPCB","14-02-2026 12:00:00",31.321907,75.578914,CO,54,62,56
India,Punjab,Jalandhar,"Civil Line, Jalandhar - PPCB","14-02-2026 12:00:00",31.321907,75.578914,OZONE,56,112,83
India,Punjab,Khanna,"Kalal Majra, Khanna - PPCB","14-02-2026 12:00:00","30.736056 ",76.209694,PM10,65,118,86
India,Punjab,Khanna,"Kalal Majra, Khanna - PPCB","14-02-2026 12:00:00","30.736056 ",76.209694,NH3,7,8,7
India,Punjab,Khanna,"Kalal Majra, Khanna - PPCB","14-02-2026 12:00:00","30.736056 ",76.209694,SO2,10,23,14
India,Punjab,Ludhiana,"Punjab Agricultural University, Ludhiana - PPCB","14-02-2026 12:00:00",30.9028,75.8086,PM2.5,90,115,98
India,Punjab,Ludhiana,"Punjab Agricultural University, Ludhiana - PPCB","14-02-2026 12:00:00",30.9028,75.8086,NO2,31,35,33
India,Maharashtra,Pune,"Mhada Colony, Pune - IITM","14-02-2026 12:00:00",18.573040,73.927715,NO2,22,130,79
India,Maharashtra,Pune,"Revenue Colony-Shivajinagar, Pune - IITM","14-02-2026 12:00:00",18.530085,73.849598,OZONE,4,72,16
India,Maharashtra,Pune,"Savitribai Phule Pune University, Pune - MPCB","14-02-2026 12:00:00",18.547056,73.826908,NH3,NA,NA,NA
India,Maharashtra,Pune,"Savitribai Phule Pune University, Pune - MPCB","14-02-2026 12:00:00",18.547056,73.826908,SO2,2,5,4
India,Maharashtra,Pune,"Savitribai Phule Pune University, Pune - MPCB","14-02-2026 12:00:00",18.547056,73.826908,OZONE,2,46,14
India,Maharashtra,Pune,"Transport Nagar-Nigdi, Pune - IITM","14-02-2026 12:00:00",18.664282,73.763966,CO,42,68,62
India,Maharashtra,Sangli,"Vijay Nagar, Sangli - MPCB","14-02-2026 12:00:00"," 16.5038",74.3623,PM2.5,50,260,123
India,Maharashtra,Sangli,"Vijay Nagar, Sangli - MPCB","14-02-2026 12:00:00"," 16.5038",74.3623,PM10,61,245,109
India,Maharashtra,Sangli,"Vijay Nagar, Sangli - MPCB","14-02-2026 12:00:00"," 16.5038",74.3623,SO2,6,28,19
India,Maharashtra,Virar,"Bolinj, Virar - MPCB","14-02-2026 12:00:00",19.4458210,72.7988231,OZONE,1,44,12
India,Meghalaya,Shillong,"Lumpyngngad, Shillong - Meghalaya PCB","14-02-2026 12:00:00",25.5586,91.8985,SO2,12,16,14
India,Meghalaya,Shillong,"Lumpyngngad, Shillong - Meghalaya PCB","14-02-2026 12:00:00",25.5586,91.8985,OZONE,18,44,36
India,Nagaland,Kohima,"PWD Junction, Kohima - NPCB","14-02-2026 12:00:00",25.6635413,94.0989878,PM10,35,92,50
India,Nagaland,Kohima,"PWD Junction, Kohima - NPCB","14-02-2026 12:00:00",25.6635413,94.0989878,OZONE,3,33,7
India,Odisha,Angul,"Hakimapada, Angul - OSPCB","14-02-2026 12:00:00",20.832874,85.104082,CO,11,100,62
India,Odisha,Balasore,"Kalidaspur, Balasore - OSPCB","14-02-2026 12:00:00",21.51161,86.89088,PM10,83,185,135
India,Odisha,Balasore,"Kalidaspur, Balasore - OSPCB","14-02-2026 12:00:00",21.51161,86.89088,NO2,12,41,25
India,Punjab,Ludhiana,"Punjab Agricultural University, Ludhiana - PPCB","14-02-2026 12:00:00",30.9028,75.8086,CO,40,86,65
India,Punjab,Ludhiana,"Punjab Agricultural University, Ludhiana - PPCB","14-02-2026 12:00:00",30.9028,75.8086,OZONE,36,45,40
India,Punjab,"Mandi Gobindgarh","RIMT University, Mandi Gobindgarh - PPCB","14-02-2026 12:00:00",30.649961,76.331442,SO2,3,83,30
India,Punjab,Patiala,"Model Town, Patiala - PPCB","14-02-2026 12:00:00",30.349388,76.366642,NO2,16,19,18
India,Punjab,Rupnagar,"Ratanpura, Rupnagar - Ambuja Cements","14-02-2026 12:00:00",31.0325454,76.5623046,PM10,1,120,37
India,Punjab,Rupnagar,"Ratanpura, Rupnagar - Ambuja Cements","14-02-2026 12:00:00",31.0325454,76.5623046,CO,36,44,40
India,Rajasthan,Alwar,"Moti Doongri, Alwar - RSPCB","14-02-2026 12:00:00",27.554793,76.611536,CO,34,96,87
India,Maharashtra,Solapur,"Dnyaneshwar Nagar, Solapur - MPCB","14-02-2026 12:00:00",17.6336264,75.9132495,SO2,3,15,8
India,Maharashtra,Solapur,"Dnyaneshwar Nagar, Solapur - MPCB","14-02-2026 12:00:00",17.6336264,75.9132495,CO,10,82,28
India,Maharashtra,Solapur,"Ratandeep Housing Society, Solapur - MPCB","14-02-2026 12:00:00",17.65439,75.90649,PM10,69,162,103
India,Maharashtra,Solapur,"Ratandeep Housing Society, Solapur - MPCB","14-02-2026 12:00:00",17.65439,75.90649,SO2,11,66,18
India,Maharashtra,Solapur,"Ratandeep Housing Society, Solapur - MPCB","14-02-2026 12:00:00",17.65439,75.90649,CO,17,118,34
India,Maharashtra,Thane,"Kasarvadavali, Thane - MPCB","14-02-2026 12:00:00",19.26777,72.97182,SO2,NA,NA,NA
India,Maharashtra,Thane,"Upvan Fort, Thane - MPCB","14-02-2026 12:00:00",19.222279,72.957979,NH3,3,6,3
India,Maharashtra,Thane,"Upvan Fort, Thane - MPCB","14-02-2026 12:00:00",19.222279,72.957979,CO,4,46,34
India,Odisha,Byasanagar,"Ferro Chrome Colony, Byasanagar - OSPCB","14-02-2026 12:00:00",20.94185,86.11510,OZONE,36,246,184
India,Odisha,Keonjhar,"Jagamohanpur, Keonjhar - OSPCB","14-02-2026 12:00:00",21.643900,85.599355,PM2.5,33,62,48
India,Odisha,Keonjhar,"Jagamohanpur, Keonjhar - OSPCB","14-02-2026 12:00:00",21.643900,85.599355,PM10,56,147,100
India,Odisha,Keonjhar,"Jagamohanpur, Keonjhar - OSPCB","14-02-2026 12:00:00",21.643900,85.599355,SO2,9,33,15
India,Odisha,Keonjhar,"Jagamohanpur, Keonjhar - OSPCB","14-02-2026 12:00:00",21.643900,85.599355,CO,1,117,8
India,Odisha,Keonjhar,"Jagamohanpur, Keonjhar - OSPCB","14-02-2026 12:00:00",21.643900,85.599355,OZONE,4,75,25
India,Odisha,Rairangpur,"Divisional Forest Office, Rairangpur - OSPCB","14-02-2026 12:00:00",22.265816,86.174829,PM10,79,156,110
India,Rajasthan,Baran,"Bamboliya, Baran - RSPCB","14-02-2026 12:00:00",25.106006,76.469948,NH3,3,4,3
India,Rajasthan,Bharatpur,"Krishna Nagar, Bharatpur - RSPCB","14-02-2026 12:00:00",27.215415,77.50873,PM10,40,140,91
India,Rajasthan,Bharatpur,"Krishna Nagar, Bharatpur - RSPCB","14-02-2026 12:00:00",27.215415,77.50873,NO2,9,67,30
India,Rajasthan,Bhilwara,"Pratap Nagar, Bhilwara - RSPCB","14-02-2026 12:00:00",25.339605,74.618883,SO2,9,51,23
India,Odisha,Rairangpur,"Divisional Forest Office, Rairangpur - OSPCB","14-02-2026 12:00:00",22.265816,86.174829,OZONE,7,70,23
India,Odisha,Rourkela,"Raghunathpali, Rourkela - OSPCB","14-02-2026 12:00:00",22.220833,84.809444,CO,36,104,75
India,Odisha,Talcher,"Talcher Coalfields,Talcher - OSPCB","14-02-2026 12:00:00",20.9360711,85.1707021,PM2.5,NA,NA,NA
India,Odisha,Barbil,"Forest Office, Barbil - OSPCB","14-02-2026 12:00:00",22.1166054,85.3945546,NO2,18,73,50
India,Odisha,Bhubaneswar,"Patia, Bhubaneswar - OSPCB","14-02-2026 12:00:00",20.34652,85.81630,PM10,108,193,142
India,Odisha,Bhubaneswar,"Patia, Bhubaneswar - OSPCB","14-02-2026 12:00:00",20.34652,85.81630,NO2,14,40,25
India,Rajasthan,Sirohi,"Vedhaynath Colony, Sirohi - RSPCB","14-02-2026 12:00:00",24.885261,72.857549,PM2.5,47,163,73
India,Rajasthan,Sirohi,"Vedhaynath Colony, Sirohi - RSPCB","14-02-2026 12:00:00",24.885261,72.857549,PM10,50,154,87
India,Rajasthan,Sirohi,"Vedhaynath Colony, Sirohi - RSPCB","14-02-2026 12:00:00",24.885261,72.857549,NH3,1,6,3
India,Rajasthan,Sirohi,"Vedhaynath Colony, Sirohi - RSPCB","14-02-2026 12:00:00",24.885261,72.857549,CO,10,38,27
India,Rajasthan,"Sri Ganganagar","Old City, Sri Ganganagar - RSPCB","14-02-2026 12:00:00",29.931624,73.864511,PM10,66,457,246
India,Rajasthan,"Sri Ganganagar","Old City, Sri Ganganagar - RSPCB","14-02-2026 12:00:00",29.931624,73.864511,SO2,3,17,8
India,Rajasthan,"Sri Ganganagar","Old City, Sri Ganganagar - RSPCB","14-02-2026 12:00:00",29.931624,73.864511,CO,24,180,63
India,Rajasthan,Tonk,"Shastri Nagar, Tonk - RSPCB","14-02-2026 12:00:00",26.159933,75.780517,NO2,14,119,39
India,Rajasthan,Tonk,"Shastri Nagar, Tonk - RSPCB","14-02-2026 12:00:00",26.159933,75.780517,NH3,8,14,11
India,Rajasthan,Tonk,"Shastri Nagar, Tonk - RSPCB","14-02-2026 12:00:00",26.159933,75.780517,CO,24,125,36
India,Rajasthan,Udaipur,"Ashok Nagar, Udaipur - RSPCB","14-02-2026 12:00:00",24.5886166,73.6321397,NH3,3,5,4
India,Sikkim,Gangtok,"Zero Point GICI, Gangtok - SSPCB","14-02-2026 12:00:00",27.338530,88.614099,NH3,1,1,1
India,TamilNadu,Chennai,"Arumbakkam, Chennai - TNPCB","14-02-2026 12:00:00",13.0664,"80.2112 ",PM2.5,46,242,91
India,TamilNadu,Chennai,"Kodungaiyur, Chennai - TNPCB","14-02-2026 12:00:00",13.1278,80.2642,PM10,66,153,105
India,Rajasthan,Jhalawar,"Rajlaxmi Nagar, Jhalawar - RSPCB","14-02-2026 12:00:00",24.588397,76.172782,SO2,7,28,12
India,Rajasthan,Jhalawar,"Rajlaxmi Nagar, Jhalawar - RSPCB","14-02-2026 12:00:00",24.588397,76.172782,CO,4,86,27
India,Rajasthan,Jhalawar,"Rajlaxmi Nagar, Jhalawar - RSPCB","14-02-2026 12:00:00",24.588397,76.172782,OZONE,16,158,43
India,Rajasthan,Jhunjhunu,"Indra Nagar, Jhunjhunu - RSPCB","14-02-2026 12:00:00",28.108988,75.386577,SO2,5,22,10
India,Rajasthan,Jhunjhunu,"Indra Nagar, Jhunjhunu - RSPCB","14-02-2026 12:00:00",28.108988,75.386577,CO,13,107,35
India,Rajasthan,Jodhpur,"Collectorate, Jodhpur - RSPCB","14-02-2026 12:00:00",26.268249,73.0193853,PM2.5,27,145,40
India,Rajasthan,Jodhpur,"Collectorate, Jodhpur - RSPCB","14-02-2026 12:00:00",26.268249,73.0193853,OZONE,6,138,26
India,Rajasthan,Jodhpur,"Digari Kalan, Jodhpur - RSPCB","14-02-2026 12:00:00",26.295810,73.082283,PM2.5,27,92,51
India,Rajasthan,Jodhpur,"Digari Kalan, Jodhpur - RSPCB","14-02-2026 12:00:00",26.295810,73.082283,PM10,60,178,107
India,Rajasthan,Jodhpur,"Digari Kalan, Jodhpur - RSPCB","14-02-2026 12:00:00",26.295810,73.082283,CO,17,49,29
India,Rajasthan,Jodhpur,"Jhalamand, Jodhpur - RSPCB","14-02-2026 12:00:00",26.215415,73.070156,NO2,10,105,43
India,Rajasthan,Jodhpur,"Mandor, Jodhpur - RSPCB","14-02-2026 12:00:00",26.358805,73.047444,NH3,2,5,3
India,Rajasthan,Jodhpur,"Mandor, Jodhpur - RSPCB","14-02-2026 12:00:00",26.358805,73.047444,CO,8,36,26
India,Rajasthan,Dholpur,"Raja Ganj, Dholpur - RSPCB","14-02-2026 12:00:00",26.699557,77.898881,OZONE,3,64,10
India,Rajasthan,Dungarpur,"Bhoiwada, Dungarpur - RSPCB","14-02-2026 12:00:00",23.837789,73.714926,PM2.5,75,331,150
India,Rajasthan,Dungarpur,"Bhoiwada, Dungarpur - RSPCB","14-02-2026 12:00:00",23.837789,73.714926,PM10,93,227,130
India,Rajasthan,Hanumangarh,"Housing Board, Hanumangarh - RSPCB","14-02-2026 12:00:00",29.610750,74.283608,NH3,1,4,2
India,Rajasthan,Hanumangarh,"Housing Board, Hanumangarh - RSPCB","14-02-2026 12:00:00",29.610750,74.283608,SO2,6,21,11
India,Rajasthan,Hanumangarh,"Housing Board, Hanumangarh - RSPCB","14-02-2026 12:00:00",29.610750,74.283608,CO,20,74,32
India,Rajasthan,Jaipur,"Adarsh Nagar, Jaipur - RSPCB","14-02-2026 12:00:00",26.902909,75.836858,SO2,18,29,22
India,Rajasthan,Jaipur,"Adarsh Nagar, Jaipur - RSPCB","14-02-2026 12:00:00",26.902909,75.836858,CO,30,110,37
India,Rajasthan,Jaipur,"Adarsh Nagar, Jaipur - RSPCB","14-02-2026 12:00:00",26.902909,75.836858,OZONE,19,86,53
India,Rajasthan,Jaipur,"Mansarovar Sector-12, Jaipur - RSPCB","14-02-2026 12:00:00",26.843698,75.766894,OZONE,3,166,86
India,Rajasthan,Jaipur,"Police Commissionerate, Jaipur - RSPCB","14-02-2026 12:00:00",26.9164092,75.7994901,NH3,4,25,11
India,Rajasthan,Bhiwadi,"Vasundhara Nagar_UIT, Bhiwadi - RSPCB","14-02-2026 12:00:00",28.207266,76.829265,PM10,NA,NA,NA
India,Rajasthan,Bhiwadi,"Vasundhara Nagar_UIT, Bhiwadi - RSPCB","14-02-2026 12:00:00",28.207266,76.829265,NH3,2,9,6
India,Rajasthan,Bhiwadi,"Vasundhara Nagar_UIT, Bhiwadi - RSPCB","14-02-2026 12:00:00",28.207266,76.829265,SO2,4,22,10
India,Rajasthan,Bikaner,"MM Ground, Bikaner - RSPCB","14-02-2026 12:00:00",28.018792,73.292658,PM10,45,319,164
India,Rajasthan,Bikaner,"MM Ground, Bikaner - RSPCB","14-02-2026 12:00:00",28.018792,73.292658,NO2,19,134,64
India,Rajasthan,Bikaner,"MM Ground, Bikaner - RSPCB","14-02-2026 12:00:00",28.018792,73.292658,SO2,8,19,13
India,Rajasthan,Bundi,"New Colony, Bundi - RSPCB","14-02-2026 12:00:00",25.435774,75.644272,OZONE,11,152,59
India,Rajasthan,Chittorgarh,"Shastri Nagar, Chittorgarh - RSPCB","14-02-2026 12:00:00",24.892047,74.623527,OZONE,4,138,25
India,Rajasthan,Churu,"Subash Chowk, Churu - RSPCB","14-02-2026 12:00:00",28.296139,74.961696,PM2.5,12,330,109
India,Rajasthan,Churu,"Subash Chowk, Churu - RSPCB","14-02-2026 12:00:00",28.296139,74.961696,SO2,3,11,5
India,Rajasthan,Jaipur,"Police Commissionerate, Jaipur - RSPCB","14-02-2026 12:00:00",26.9164092,75.7994901,CO,48,82,63
India,Rajasthan,Jaipur,"RIICO Sitapura, Jaipur - RSPCB","14-02-2026 12:00:00",26.786682,75.827928,PM2.5,40,338,121
India,Rajasthan,Jaipur,"Sector-2 Murlipura, Jaipur - RSPCB","14-02-2026 12:00:00",26.960669,75.771817,PM2.5,28,262,94
India,Rajasthan,Jaipur,"Sector-2 Murlipura, Jaipur - RSPCB","14-02-2026 12:00:00",26.960669,75.771817,NO2,22,104,54
India,Rajasthan,Jaipur,"Sector-2 Murlipura, Jaipur - RSPCB","14-02-2026 12:00:00",26.960669,75.771817,OZONE,12,88,38
India,Rajasthan,Jaipur,"Shastri Nagar, Jaipur - RSPCB","14-02-2026 12:00:00",26.9502929,75.730943,PM2.5,49,146,91
India,Rajasthan,Jaipur,"Shastri Nagar, Jaipur - RSPCB","14-02-2026 12:00:00",26.9502929,75.730943,CO,42,110,88
India,Rajasthan,Jalore,"Mudtra Sili, Jalore - RSPCB","14-02-2026 12:00:00",25.344694,72.626208,PM2.5,42,253,111
India,Rajasthan,Jalore,"Mudtra Sili, Jalore - RSPCB","14-02-2026 12:00:00",25.344694,72.626208,PM10,63,328,154
India,TamilNadu,Chennai,"Kodungaiyur, Chennai - TNPCB","14-02-2026 12:00:00",13.1278,80.2642,NO2,12,16,14
India,TamilNadu,Chennai,"Kodungaiyur, Chennai - TNPCB","14-02-2026 12:00:00",13.1278,80.2642,OZONE,27,34,32
India,TamilNadu,Chennai,"Manali Village, Chennai - TNPCB","14-02-2026 12:00:00",13.1662,80.2584,CO,26,31,30
India,TamilNadu,Chennai,"Manali, Chennai - CPCB","14-02-2026 12:00:00",13.164544,80.26285,PM2.5,3,133,49
India,TamilNadu,Chennai,"Manali, Chennai - CPCB","14-02-2026 12:00:00",13.164544,80.26285,CO,24,68,48
India,TamilNadu,Chennai,"Manali, Chennai - CPCB","14-02-2026 12:00:00",13.164544,80.26285,OZONE,10,10,10
India,TamilNadu,Chennai,"Perungudi, Chennai - TNPCB","14-02-2026 12:00:00",12.9533,80.2357,SO2,2,7,5
India,TamilNadu,Chennai,"Royapuram, Chennai - TNPCB","14-02-2026 12:00:00",13.1036,80.2909,PM2.5,32,173,72
India,TamilNadu,Chennai,"Royapuram, Chennai - TNPCB","14-02-2026 12:00:00",13.1036,80.2909,NO2,1,10,2
India,TamilNadu,Chennai,"Royapuram, Chennai - TNPCB","14-02-2026 12:00:00",13.1036,80.2909,SO2,5,8,6
India,TamilNadu,Coimbatore,"SIDCO Kurichi, Coimbatore - TNPCB","14-02-2026 12:00:00",10.942451,76.978996,PM2.5,24,73,48
India,TamilNadu,Coimbatore,"SIDCO Kurichi, Coimbatore - TNPCB","14-02-2026 12:00:00",10.942451,76.978996,NH3,1,2,2
India,TamilNadu,Gummidipoondi,"Anthoni Pillai Nagar, Gummidipoondi - TNPCB","14-02-2026 12:00:00",13.4127,80.1081,NO2,16,28,21
India,TamilNadu,Madurai,"Uchapatti, Madurai - TNPCB","14-02-2026 12:00:00",9.865935,78.022669,OZONE,NA,NA,NA
India,TamilNadu,Perundurai,"SIPCOT Industrial Park, Perundurai - TNPCB","14-02-2026 12:00:00",11.258242,77.552761,NH3,2,3,2
India,TamilNadu,Perundurai,"SIPCOT Industrial Park, Perundurai - TNPCB","14-02-2026 12:00:00",11.258242,77.552761,CO,34,41,39
India,TamilNadu,Thoothukudi,"Meelavittan, Thoothukudi - TNPCB","14-02-2026 12:00:00","8.816428 ",78.099039,PM10,29,120,51
India,Rajasthan,Pali,"Indira Colony Vistar, Pali - RSPCB","14-02-2026 12:00:00",25.771061," 73.340227",PM2.5,58,186,112
India,Rajasthan,Pali,"Indira Colony Vistar, Pali - RSPCB","14-02-2026 12:00:00",25.771061," 73.340227",CO,22,66,42
India,Rajasthan,Pali,"Indira Colony Vistar, Pali - RSPCB","14-02-2026 12:00:00",25.771061," 73.340227",OZONE,9,75,15
India,Rajasthan,Pratapgarh,"Pragati Nagar, Pratapgarh - RSPCB","14-02-2026 12:00:00",24.041198,74.780702,NH3,5,9,6
India,Rajasthan,Rajsamand,"Dhoinda, Rajsamand - RSPCB","14-02-2026 12:00:00",25.036360,73.883502,PM10,69,156,107
India,Rajasthan,Rajsamand,"Dhoinda, Rajsamand - RSPCB","14-02-2026 12:00:00",25.036360,73.883502,NH3,10,28,19
India,Rajasthan,Rajsamand,"Dhoinda, Rajsamand - RSPCB","14-02-2026 12:00:00",25.036360,73.883502,CO,24,66,39
India,Rajasthan,"Sawai Madhopur","Sahu Nagar, Sawai Madhopur - RSPCB","14-02-2026 12:00:00",26.031443,76.359327,NH3,7,16,10
India,Rajasthan,Jodhpur,"Samrat Ashok Udhyan, Jodhpur - RSPCB","14-02-2026 12:00:00",26.253384,72.976571,PM2.5,18,120,56
India,Rajasthan,Jodhpur,"Samrat Ashok Udhyan, Jodhpur - RSPCB","14-02-2026 12:00:00",26.253384,72.976571,NO2,6,46,23
India,Rajasthan,Karauli,"Satyawati Vihar, Karauli - RSPCB","14-02-2026 12:00:00",26.506177,77.025989,PM10,58,213,90
India,Rajasthan,Kota,"Dhanmandi, Kota - RSPCB","14-02-2026 12:00:00",25.164090,75.858137,PM2.5,68,270,149
India,Rajasthan,Kota,"Nayapura, Kota - RSPCB","14-02-2026 12:00:00",25.196024,75.855668,SO2,3,81,16
India,Rajasthan,Nagaur,"Karni Colony, Nagaur - RSPCB","14-02-2026 12:00:00",27.213494,73.734444,SO2,NA,NA,NA
India,Uttar_Pradesh,Ghaziabad,"Vasundhara, Ghaziabad - UPPCB","14-02-2026 12:00:00",28.6603346,77.3572563,CO,12,123,32
India,Uttar_Pradesh,Ghaziabad,"Vasundhara, Ghaziabad - UPPCB","14-02-2026 12:00:00",28.6603346,77.3572563,OZONE,6,102,14
India,Uttar_Pradesh,Gorakhpur,"Madan Mohan Malaviya University of Technology, Gorakhpur - UPPCB","14-02-2026 12:00:00",26.730136,83.433859,NO2,11,12,12
India,Uttar_Pradesh,Gorakhpur,"Madan Mohan Malaviya University of Technology, Gorakhpur - UPPCB","14-02-2026 12:00:00",26.730136,83.433859,SO2,41,44,43
India,Uttar_Pradesh,"Greater Noida","Knowledge Park - III, Greater Noida - UPPCB","14-02-2026 12:00:00",28.47272,77.482000,PM2.5,35,303,177
India,Uttar_Pradesh,"Greater Noida","Knowledge Park - III, Greater Noida - UPPCB","14-02-2026 12:00:00",28.47272,77.482000,CO,8,59,11
India,Uttar_Pradesh,"Greater Noida","Knowledge Park - V, Greater Noida - UPPCB","14-02-2026 12:00:00",28.557054,77.453663,PM2.5,63,329,231
India,Uttar_Pradesh,"Greater Noida","Knowledge Park - V, Greater Noida - UPPCB","14-02-2026 12:00:00",28.557054,77.453663,PM10,124,465,234
India,Uttar_Pradesh,Hapur,"Anand Vihar, Hapur - UPPCB","14-02-2026 12:00:00",28.725645,77.749675,SO2,30,65,43
India,Telangana,Hyderabad,"Bollaram Industrial Area, Hyderabad - TSPCB","14-02-2026 12:00:00",17.540891,78.358528,CO,9,44,31
India,Telangana,Hyderabad,"Bollaram Industrial Area, Hyderabad - TSPCB","14-02-2026 12:00:00",17.540891,78.358528,OZONE,37,46,39
India,Telangana,Hyderabad,"Central University, Hyderabad - TSPCB","14-02-2026 12:00:00",17.460103,78.334361,PM2.5,37,81,65
India,Telangana,Hyderabad,"ECIL Kapra, Hyderabad - TSPCB","14-02-2026 12:00:00",17.470431,78.566959,PM2.5,20,104,46
India,Telangana,Hyderabad,"ECIL Kapra, Hyderabad - TSPCB","14-02-2026 12:00:00",17.470431,78.566959,SO2,3,77,18
India,Telangana,Hyderabad,"ECIL Kapra, Hyderabad - TSPCB","14-02-2026 12:00:00",17.470431,78.566959,OZONE,16,41,16
India,Telangana,Hyderabad,"ICRISAT Patancheru, Hyderabad - TSPCB","14-02-2026 12:00:00",17.518400,78.278777,PM2.5,50,84,69
India,Telangana,Hyderabad,"ICRISAT Patancheru, Hyderabad - TSPCB","14-02-2026 12:00:00",17.518400,78.278777,PM10,56,94,78
India,Telangana,Hyderabad,"IDA Pashamylaram, Hyderabad - TSPCB","14-02-2026 12:00:00",17.5316895,78.218939,PM10,45,96,68
India,Telangana,Hyderabad,"IDA Pashamylaram, Hyderabad - TSPCB","14-02-2026 12:00:00",17.5316895,78.218939,NO2,6,7,7
India,Telangana,Hyderabad,"IITH Kandi, Hyderabad - TSPCB","14-02-2026 12:00:00",17.585705,78.126199,OZONE,23,36,24
India,Telangana,Hyderabad,"Kokapet, Hyderabad - TSPCB","14-02-2026 12:00:00",17.393559,78.339194,NH3,2,3,2
India,Telangana,Hyderabad,"Kompally Municipal Office, Hyderabad - TSPCB","14-02-2026 12:00:00",17.544899,78.486949,PM10,67,89,73
India,Telangana,Hyderabad,"Kompally Municipal Office, Hyderabad - TSPCB","14-02-2026 12:00:00",17.544899,78.486949,NH3,4,5,5
India,Telangana,Hyderabad,"Kompally Municipal Office, Hyderabad - TSPCB","14-02-2026 12:00:00",17.544899,78.486949,OZONE,20,30,21
India,Telangana,Hyderabad,"Nacharam_TSIIC IALA, Hyderabad - TSPCB","14-02-2026 12:00:00",17.429398,78.569354,PM10,76,79,77
India,Telangana,Hyderabad,"Nacharam_TSIIC IALA, Hyderabad - TSPCB","14-02-2026 12:00:00",17.429398,78.569354,NH3,5,5,5
India,Telangana,Hyderabad,"New Malakpet, Hyderabad - TSPCB","14-02-2026 12:00:00",17.37206,78.50864,PM2.5,38,101,67
India,Telangana,Hyderabad,"New Malakpet, Hyderabad - TSPCB","14-02-2026 12:00:00",17.37206,78.50864,OZONE,18,30,23
India,Uttar_Pradesh,Jhansi,"Shivaji Nagar, Jhansi - UPPCB","14-02-2026 12:00:00",25.4547,78.6039,PM10,44,133,77
India,Uttar_Pradesh,Jhansi,"Shivaji Nagar, Jhansi - UPPCB","14-02-2026 12:00:00",25.4547,78.6039,OZONE,1,28,1
India,Uttar_Pradesh,Kanpur,"FTI Kidwai Nagar, Kanpur - UPPCB","14-02-2026 12:00:00",26.428282,80.327067,PM10,44,172,110
India,Uttar_Pradesh,Kanpur,"FTI Kidwai Nagar, Kanpur - UPPCB","14-02-2026 12:00:00",26.428282,80.327067,NH3,5,5,5
India,Uttar_Pradesh,Kanpur,"NSI Kalyanpur, Kanpur - UPPCB","14-02-2026 12:00:00",26.509954,80.249612,SO2,29,88,45
India,Uttar_Pradesh,Kanpur,"NSI Kalyanpur, Kanpur - UPPCB","14-02-2026 12:00:00",26.509954,80.249612,CO,24,70,54
India,Uttar_Pradesh,Kanpur,"Nehru Nagar, Kanpur - UPPCB","14-02-2026 12:00:00",26.4703136,80.3229863,PM2.5,43,308,148
India,Uttar_Pradesh,Kanpur,"Nehru Nagar, Kanpur - UPPCB","14-02-2026 12:00:00",26.4703136,80.3229863,NO2,49,55,52
India,Uttar_Pradesh,Kanpur,"Nehru Nagar, Kanpur - UPPCB","14-02-2026 12:00:00",26.4703136,80.3229863,OZONE,6,22,9
India,Uttar_Pradesh,Bulandshahr,"Yamunapuram, Bulandshahr - UPPCB","14-02-2026 12:00:00",28.406963,77.849831,PM10,122,350,186
India,Uttar_Pradesh,Bulandshahr,"Yamunapuram, Bulandshahr - UPPCB","14-02-2026 12:00:00",28.406963,77.849831,SO2,9,29,18
India,Uttar_Pradesh,Firozabad,"Vibhab Nagar, Firozabad - UPPCB","14-02-2026 12:00:00",27.1594,78.3953,NO2,15,15,15
India,Uttar_Pradesh,Ghaziabad,"Loni, Ghaziabad - UPPCB","14-02-2026 12:00:00",28.757294,77.278792,SO2,2,33,17
India,Uttar_Pradesh,Ghaziabad,"Sanjay Nagar, Ghaziabad - UPPCB","14-02-2026 12:00:00",28.685382,77.453839,NO2,50,149,93
India,Telangana,Hyderabad,"Ramachandrapuram, Hyderabad - TSPCB","14-02-2026 12:00:00",17.528544,78.286195,NO2,11,17,16
India,Telangana,Hyderabad,"Somajiguda, Hyderabad - TSPCB","14-02-2026 12:00:00",17.417094,78.457437,NO2,12,16,13
India,Telangana,Hyderabad,"Somajiguda, Hyderabad - TSPCB","14-02-2026 12:00:00",17.417094,78.457437,CO,27,44,32
India,Uttar_Pradesh,Agra,"Manoharpur, Agra - UPPCB","14-02-2026 12:00:00",27.23711,78.01936,PM10,42,158,90
India,Uttar_Pradesh,Agra,"Manoharpur, Agra - UPPCB","14-02-2026 12:00:00",27.23711,78.01936,NH3,4,5,4
India,Uttar_Pradesh,Agra,"Rohta, Agra - UPPCB","14-02-2026 12:00:00",27.106972,78.000111,NO2,14,14,14
India,Uttar_Pradesh,Agra,"Sanjay Palace, Agra - UPPCB","14-02-2026 12:00:00",27.19865833,78.00598056,PM2.5,56,365,206
India,Uttar_Pradesh,Agra,"Sanjay Palace, Agra - UPPCB","14-02-2026 12:00:00",27.19865833,78.00598056,PM10,56,206,113
India,Uttar_Pradesh,Agra,"Sanjay Palace, Agra - UPPCB","14-02-2026 12:00:00",27.19865833,78.00598056,CO,30,60,38
India,Uttar_Pradesh,Baghpat,"Sardar Patel Inter College, Baghpat - UPPCB","14-02-2026 12:00:00",28.964949,77.278761,OZONE,3,67,5
India,Uttar_Pradesh,Lucknow,"B R Ambedkar University, Lucknow - UPPCB","14-02-2026 12:00:00",26.766433,80.927299,PM2.5,19,165,60
India,Uttar_Pradesh,Lucknow,"B R Ambedkar University, Lucknow - UPPCB","14-02-2026 12:00:00",26.766433,80.927299,NO2,11,12,12
India,Uttar_Pradesh,Lucknow,"B R Ambedkar University, Lucknow - UPPCB","14-02-2026 12:00:00",26.766433,80.927299,OZONE,17,77,34
India,Uttar_Pradesh,Lucknow,"Gomti Nagar, Lucknow - UPPCB","14-02-2026 12:00:00",26.868120,81.005119,NO2,6,9,8
India,Uttar_Pradesh,Lucknow,"Gomti Nagar, Lucknow - UPPCB","14-02-2026 12:00:00",26.868120,81.005119,SO2,11,12,12
India,Uttar_Pradesh,Bareilly,"Civil Lines, Bareilly - UPPCB","14-02-2026 12:00:00",28.359581,79.414455,NO2,2,3,2
India,Uttar_Pradesh,Bareilly,"Rajendra Nagar, Bareilly - UPPCB","14-02-2026 12:00:00",28.38910936,79.42963708,PM2.5,31,71,50
India,West_Bengal,Durgapur,"Mahishkapur Road_B-Zone, Durgapur - WBPCB","14-02-2026 12:00:00",23.567923,87.306843,PM10,40,130,91
India,West_Bengal,Durgapur,"Mahishkapur Road_B-Zone, Durgapur - WBPCB","14-02-2026 12:00:00",23.567923,87.306843,NO2,10,74,40
India,West_Bengal,Durgapur,"PCBL Residential Complex, Durgapur - WBPCB","14-02-2026 12:00:00",23.5087640,87.3544400,NO2,26,62,46
India,West_Bengal,Durgapur,"PCBL Residential Complex, Durgapur - WBPCB","14-02-2026 12:00:00",23.5087640,87.3544400,CO,26,96,68
India,West_Bengal,Durgapur,"PCBL Residential Complex, Durgapur - WBPCB","14-02-2026 12:00:00",23.5087640,87.3544400,OZONE,1,53,19
India,West_Bengal,Durgapur,"Womens College_City Center, Durgapur - WBPCB","14-02-2026 12:00:00",23.549395,87.300496,PM2.5,25,211,96
India,West_Bengal,Durgapur,"Womens College_City Center, Durgapur - WBPCB","14-02-2026 12:00:00",23.549395,87.300496,PM10,59,209,127
India,West_Bengal,Durgapur,"Womens College_City Center, Durgapur - WBPCB","14-02-2026 12:00:00",23.549395,87.300496,OZONE,2,76,17
India,West_Bengal,Haldia,"Priyambada Housing Estate, Haldia - WBPCB","14-02-2026 12:00:00",22.06047,88.109737,CO,25,66,44
India,West_Bengal,Howrah,"Botanical Garden, Howrah - WBPCB","14-02-2026 12:00:00",22.554954,88.292568,PM10,46,152,99
India,Uttar_Pradesh,Varanasi,"IESD Banaras Hindu University, Varanasi - UPPCB","14-02-2026 12:00:00",25.262326,82.995408,PM10,21,119,67
India,Uttar_Pradesh,Varanasi,"Maldahiya, Varanasi - UPPCB","14-02-2026 12:00:00",25.32393,82.99687,SO2,29,31,30
India,Uttar_Pradesh,Varanasi,"Maldahiya, Varanasi - UPPCB","14-02-2026 12:00:00",25.32393,82.99687,CO,16,49,29
India,Uttar_Pradesh,Vrindavan,"Omex Eternity, Vrindavan - UPPCB","14-02-2026 12:00:00",27.5714090,77.6557570,PM10,41,234,102
India,Uttar_Pradesh,Vrindavan,"Omex Eternity, Vrindavan - UPPCB","14-02-2026 12:00:00",27.5714090,77.6557570,NH3,2,9,7
India,Uttar_Pradesh,Vrindavan,"Omex Eternity, Vrindavan - UPPCB","14-02-2026 12:00:00",27.5714090,77.6557570,SO2,14,29,17
India,Uttarakhand,Kashipur,"Govt. Girls Inter College, Kashipur - UKPCB","14-02-2026 12:00:00",29.2124114,78.9611753,CO,NA,NA,NA
India,Uttarakhand,Rishikesh,"Shivaji Nagar, Rishikesh - UKPCB","14-02-2026 12:00:00",30.075911,78.2859547,PM2.5,2,2,2
India,West_Bengal,Howrah,"Dasnagar, Howrah - WBPCB","14-02-2026 12:00:00",22.6025571,88.3105664,OZONE,15,140,40
India,West_Bengal,Howrah,"Padmapukur, Howrah - WBPCB","14-02-2026 12:00:00",22.5687319,88.2797276,NO2,33,149,93
India,West_Bengal,Howrah,"Padmapukur, Howrah - WBPCB","14-02-2026 12:00:00",22.5687319,88.2797276,NH3,4,24,9
India,West_Bengal,Howrah,"Padmapukur, Howrah - WBPCB","14-02-2026 12:00:00",22.5687319,88.2797276,CO,36,90,53
India,West_Bengal,Kolkata,"Ballygunge, Kolkata - WBPCB","14-02-2026 12:00:00",22.5367507,88.3638022,PM2.5,89,308,209
India,West_Bengal,Kolkata,"Ballygunge, Kolkata - WBPCB","14-02-2026 12:00:00",22.5367507,88.3638022,PM10,74,188,135
India,West_Bengal,Kolkata,"Ballygunge, Kolkata - WBPCB","14-02-2026 12:00:00",22.5367507,88.3638022,NH3,7,13,9
India,West_Bengal,Kolkata,"Bidhannagar, Kolkata - WBPCB","14-02-2026 12:00:00",22.58157048,88.41002457,NH3,NA,NA,NA
India,West_Bengal,Kolkata,"Bidhannagar, Kolkata - WBPCB","14-02-2026 12:00:00",22.58157048,88.41002457,SO2,9,95,24
India,Uttar_Pradesh,Moradabad,"Kashiram Nagar, Moradabad - UPPCB","14-02-2026 12:00:00",28.849399,78.742362,CO,22,52,33
India,Uttar_Pradesh,Moradabad,"Kashiram Nagar, Moradabad - UPPCB","14-02-2026 12:00:00",28.849399,78.742362,OZONE,10,46,12
India,Uttar_Pradesh,Moradabad,"Transport Nagar, Moradabad - UPPCB","14-02-2026 12:00:00",28.802625,78.753728,SO2,39,47,41
India,Uttar_Pradesh,Muzaffarnagar,"New Mandi, Muzaffarnagar - UPPCB","14-02-2026 12:00:00",29.4723508,77.7194031,PM10,100,208,162
India,Uttar_Pradesh,Muzaffarnagar,"New Mandi, Muzaffarnagar - UPPCB","14-02-2026 12:00:00",29.4723508,77.7194031,NH3,7,13,10
India,Uttar_Pradesh,Noida,"Sector - 125, Noida - UPPCB","14-02-2026 12:00:00",28.5447608,77.3231257,PM2.5,54,345,234
India,Uttarakhand,Rishikesh,"Shivaji Nagar, Rishikesh - UKPCB","14-02-2026 12:00:00",30.075911,78.2859547,OZONE,80,80,80
India,West_Bengal,Asansol,"Evelyn Lodge, Asansol - WBPCB","14-02-2026 12:00:00",23.6979360,86.9443950,NO2,9,52,26
India,West_Bengal,Asansol,"Evelyn Lodge, Asansol - WBPCB","14-02-2026 12:00:00",23.6979360,86.9443950,CO,23,101,69
India,West_Bengal,Durgapur,"Mahishkapur Road_B-Zone, Durgapur - WBPCB","14-02-2026 12:00:00",23.567923,87.306843,PM2.5,29,212,93
India,Uttar_Pradesh,Noida,"Sector-116, Noida - UPPCB","14-02-2026 12:00:00",28.569230,77.393848,PM2.5,48,396,213
India,Uttar_Pradesh,Prayagraj,"Jhunsi, Prayagraj - UPPCB","14-02-2026 12:00:00",25.425602,81.917152,PM10,20,132,81
India,Uttar_Pradesh,Varanasi,"Ardhali Bazar, Varanasi - UPPCB","14-02-2026 12:00:00",25.3505986,82.9083074,NO2,40,44,42
India,Uttar_Pradesh,Varanasi,"Bhelupur, Varanasi - UPPCB","14-02-2026 12:00:00",25.301778,82.996789,PM2.5,43,244,91
India,Uttar_Pradesh,Moradabad,"Buddhi Vihar, Moradabad - UPPCB","14-02-2026 12:00:00",28.83526,78.74460,NO2,28,29,29
India,Uttar_Pradesh,Moradabad,"Employment Office, Moradabad - UPPCB","14-02-2026 12:00:00",28.88528,78.73880,NO2,16,16,16
India,Uttar_Pradesh,Moradabad,"Employment Office, Moradabad - UPPCB","14-02-2026 12:00:00",28.88528,78.73880,NH3,4,4,4
India,Uttar_Pradesh,Moradabad,"Jigar Colony, Moradabad - UPPCB","14-02-2026 12:00:00",28.856664,78.772638,SO2,28,39,34
India,Uttar_Pradesh,Moradabad,"Jigar Colony, Moradabad - UPPCB","14-02-2026 12:00:00",28.856664,78.772638,CO,40,40,40
India,Uttar_Pradesh,Lucknow,"Lalbagh, Lucknow - CPCB","14-02-2026 12:00:00",26.8458805,80.9365541,SO2,2,17,8
India,Uttar_Pradesh,Lucknow,"Talkatora District Industries Center, Lucknow - CPCB","14-02-2026 12:00:00",26.83399722,80.8917361,SO2,3,20,8
India,Uttar_Pradesh,Noida,"Sector-1, Noida - UPPCB","14-02-2026 12:00:00",28.5898,77.3101,NH3,6,8,7
India,West_Bengal,Kolkata,"Fort William, Kolkata - WBPCB","14-02-2026 12:00:00",22.556640,88.342674,OZONE,2,42,9
India,West_Bengal,Kolkata,"Rabindra Bharati University, Kolkata - WBPCB","14-02-2026 12:00:00",22.627847,88.380669,NO2,43,197,118
India,West_Bengal,Kolkata,"Victoria, Kolkata - WBPCB","14-02-2026 12:00:00",22.5448082,88.3403691,PM2.5,74,294,156
India,West_Bengal,Kolkata,"Victoria, Kolkata - WBPCB","14-02-2026 12:00:00",22.5448082,88.3403691,PM10,99,314,157
India,West_Bengal,Kolkata,"Victoria, Kolkata - WBPCB","14-02-2026 12:00:00",22.5448082,88.3403691,NO2,46,95,67
India,West_Bengal,Siliguri,"Ward-32 Bapupara, Siliguri - WBPCB","14-02-2026 12:00:00",26.6879226,88.4152495,OZONE,32,120,68
India,Andhra_Pradesh,Visakhapatnam,"GVM Corporation, Visakhapatnam - APPCB","14-02-2026 12:00:00",17.72,83.3,NH3,3,4,4
India,Andhra_Pradesh,Visakhapatnam,"GVM Corporation, Visakhapatnam - APPCB","14-02-2026 12:00:00",17.72,83.3,CO,14,72,49
India,Arunachal_Pradesh,Naharlagun,"Naharlagun, Naharlagun - APSPCB","14-02-2026 12:00:00",27.103358,93.679645,PM2.5,43,380,198
India,Arunachal_Pradesh,Naharlagun,"Naharlagun, Naharlagun - APSPCB","14-02-2026 12:00:00",27.103358,93.679645,CO,20,68,27
India,Assam,Byrnihat,"Central Academy for SFS, Byrnihat - PCBA","14-02-2026 12:00:00",26.071318,91.87488,PM10,66,118,88
India,Assam,Guwahati,"LGBI Airport, Guwahati - PCBA","14-02-2026 12:00:00",26.10887,91.589544,SO2,7,24,11
India,Assam,Guwahati,"Pan Bazaar, Guwahati - PCBA","14-02-2026 12:00:00",26.187500,91.744194,NH3,1,1,1
India,Assam,Guwahati,"Pan Bazaar, Guwahati - PCBA","14-02-2026 12:00:00",26.187500,91.744194,SO2,26,54,38
India,Assam,Guwahati,"Pan Bazaar, Guwahati - PCBA","14-02-2026 12:00:00",26.187500,91.744194,CO,20,88,34
India,Bihar,Bhagalpur,"Mayaganj, Bhagalpur - BSPCB","14-02-2026 12:00:00",25.265194,87.012947,CO,66,82,74
India,Bihar,"Bihar Sharif","D M Colony, Bihar Sharif - BSPCB","14-02-2026 12:00:00",25.204762,85.514960,NH3,5,5,5
India,Bihar,"Bihar Sharif","D M Colony, Bihar Sharif - BSPCB","14-02-2026 12:00:00",25.204762,85.514960,SO2,9,10,10
India,Bihar,Buxar,"Charitra Van, Buxar - BSPCB","14-02-2026 12:00:00",25.567520,83.966379,PM2.5,47,100,70
India,Bihar,Buxar,"Charitra Van, Buxar - BSPCB","14-02-2026 12:00:00",25.567520,83.966379,PM10,43,102,68
India,Bihar,Buxar,"Charitra Van, Buxar - BSPCB","14-02-2026 12:00:00",25.567520,83.966379,NH3,3,3,3
India,Bihar,Buxar,"Charitra Van, Buxar - BSPCB","14-02-2026 12:00:00",25.567520,83.966379,SO2,10,40,26
India,Bihar,Chhapra,"Darshan Nagar, Chhapra - BSPCB","14-02-2026 12:00:00",25.7808257,84.7446768,NH3,6,11,8
India,Bihar,Gaya,"Collectorate, Gaya - BSPCB","14-02-2026 12:00:00",24.7955,84.9994,CO,42,100,46
India,Bihar,Samastipur,"DM Office_Kasipur, Samastipur - BSPCB","14-02-2026 12:00:00",25.859655,85.77944,PM2.5,38,85,57
India,Bihar,Sasaram,"Dada Peer, Sasaram - BSPCB","14-02-2026 12:00:00",24.952822,84.002396,PM2.5,10,38,17
India,Bihar,Sasaram,"Dada Peer, Sasaram - BSPCB","14-02-2026 12:00:00",24.952822,84.002396,CO,36,101,50
India,Bihar,Siwan,"Chitragupta Nagar, Siwan - BSPCB","14-02-2026 12:00:00",26.2271665,84.3570427,NO2,2,2,2
India,Bihar,Siwan,"Chitragupta Nagar, Siwan - BSPCB","14-02-2026 12:00:00",26.2271665,84.3570427,NH3,1,1,1
India,Bihar,Siwan,"Chitragupta Nagar, Siwan - BSPCB","14-02-2026 12:00:00",26.2271665,84.3570427,SO2,6,7,7
India,Chandigarh,Chandigarh,"Sector 22, Chandigarh - CPCC","14-02-2026 12:00:00",30.735567,76.775714,NH3,NA,NA,NA
India,Chandigarh,Chandigarh,"Sector 22, Chandigarh - CPCC","14-02-2026 12:00:00",30.735567,76.775714,SO2,NA,NA,NA
India,Chandigarh,Chandigarh,"Sector 22, Chandigarh - CPCC","14-02-2026 12:00:00",30.735567,76.775714,CO,20,118,22
India,Andhra_Pradesh,Tirumala,"Toll Gate, Tirumala - APPCB","14-02-2026 12:00:00",13.67,79.35,SO2,6,21,9
India,Andhra_Pradesh,Tirumala,"Toll Gate, Tirumala - APPCB","14-02-2026 12:00:00",13.67,79.35,OZONE,10,57,22
India,Andhra_Pradesh,Tirupati,"Vaikuntapuram, Tirupati - APPCB","14-02-2026 12:00:00",13.615387,79.409230,PM10,NA,NA,NA
India,Andhra_Pradesh,Tirupati,"Vaikuntapuram, Tirupati - APPCB","14-02-2026 12:00:00",13.615387,79.409230,NO2,NA,NA,NA
India,Andhra_Pradesh,Tirupati,"Vaikuntapuram, Tirupati - APPCB","14-02-2026 12:00:00",13.615387,79.409230,CO,NA,NA,NA
India,Andhra_Pradesh,Vijayawada,"HB Colony, Vijayawada - APPCB","14-02-2026 12:00:00",16.536107,80.594233,CO,32,41,40
India,Andhra_Pradesh,Vijayawada,"Kanuru, Vijayawada - APPCB","14-02-2026 12:00:00",16.486692,80.699436,NO2,17,19,17
India,Andhra_Pradesh,Vijayawada,"Kanuru, Vijayawada - APPCB","14-02-2026 12:00:00",16.486692,80.699436,SO2,14,19,16
India,Andhra_Pradesh,Vijayawada,"Rajiv Gandhi Park, Vijayawada - APPCB","14-02-2026 12:00:00",16.509717,80.612222,NO2,8,70,48
India,Bihar,Motihari,"Gandak Colony, Motihari - BSPCB","14-02-2026 12:00:00",26.63086,84.90051,NH3,3,3,3
India,Bihar,Motihari,"Gandak Colony, Motihari - BSPCB","14-02-2026 12:00:00",26.63086,84.90051,OZONE,3,8,4
India,Bihar,Munger,"Town Hall, Munger - BSPCB","14-02-2026 12:00:00",25.376776,86.471523,OZONE,8,12,10
India,Bihar,Muzaffarpur,"Buddha Colony, Muzaffarpur - BSPCB","14-02-2026 12:00:00",26.11442,85.39813,NH3,5,13,9
India,Bihar,Muzaffarpur,"MIT-Daudpur Kothi, Muzaffarpur - BSPCB","14-02-2026 12:00:00",26.1403345,85.3650192,PM10,59,70,64
India,Bihar,Muzaffarpur,"MIT-Daudpur Kothi, Muzaffarpur - BSPCB","14-02-2026 12:00:00",26.1403345,85.3650192,NH3,4,5,5
India,Bihar,Patna,"DRM Office Danapur, Patna - BSPCB","14-02-2026 12:00:00",25.586562,85.043586,NO2,NA,NA,NA
India,Bihar,Patna,"DRM Office Danapur, Patna - BSPCB","14-02-2026 12:00:00",25.586562,85.043586,CO,NA,NA,NA
India,Bihar,Gaya,"SFTI Kusdihra, Gaya - BSPCB","14-02-2026 12:00:00",24.762518,84.982348,CO,10,45,31
India,Bihar,Hajipur,"Industrial Area, Hajipur - BSPCB","14-02-2026 12:00:00",25.697189,85.245900,NH3,17,23,21
India,Bihar,Katihar,"Mirchaibari, Katihar - BSPCB","14-02-2026 12:00:00",25.560083,87.553265,NH3,1,1,1
India,Bihar,Katihar,"Mirchaibari, Katihar - BSPCB","14-02-2026 12:00:00",25.560083,87.553265,OZONE,6,45,13
India,Bihar,Kishanganj,"SDM Office_Khagra, Kishanganj - BSPCB","14-02-2026 12:00:00",26.0881305,87.93840336,PM10,51,84,65
India,Bihar,Kishanganj,"SDM Office_Khagra, Kishanganj - BSPCB","14-02-2026 12:00:00",26.0881305,87.93840336,CO,16,23,18
India,Bihar,Manguraha,"Forest Rest House, Manguraha - BSPCB","14-02-2026 12:00:00",27.308328,84.531742,NO2,4,9,5
India,Bihar,Arrah,"New DM Office, Arrah - BSPCB","14-02-2026 12:00:00",25.5626095,84.663264,NO2,5,8,7
India,Bihar,Arrah,"New DM Office, Arrah - BSPCB","14-02-2026 12:00:00",25.5626095,84.663264,SO2,4,11,10
India,Bihar,Arrah,"New DM Office, Arrah - BSPCB","14-02-2026 12:00:00",25.5626095,84.663264,CO,38,63,54
India,Bihar,Aurangabad,"Gurdeo Nagar, Aurangabad - BSPCB","14-02-2026 12:00:00",24.75746,84.366208,NH3,1,2,2
India,Bihar,Begusarai,"Lohiyanagar, Begusarai - BSPCB","14-02-2026 12:00:00",25.42742023,86.13886079,SO2,22,26,24
India,Bihar,Bettiah,"Kamalnath Nagar, Bettiah - BSPCB","14-02-2026 12:00:00",26.80365,84.51954,NH3,1,1,1
India,Bihar,Bhagalpur,"DM Office_Kachari Chowk, Bhagalpur - BSPCB","14-02-2026 12:00:00",25.251013,86.989001,PM10,29,82,46
India,Bihar,Patna,"IGSC Planetarium Complex, Patna - BSPCB","14-02-2026 12:00:00",25.610369,85.132568,PM2.5,NA,NA,NA
India,Bihar,Patna,"Rajbansi Nagar, Patna - BSPCB","14-02-2026 12:00:00",25.599486,85.113666,NO2,13,56,25
India,Bihar,Patna,"Rajbansi Nagar, Patna - BSPCB","14-02-2026 12:00:00",25.599486,85.113666,NH3,1,2,2
India,Bihar,Patna,"Rajbansi Nagar, Patna - BSPCB","14-02-2026 12:00:00",25.599486,85.113666,SO2,1,8,4
India,Bihar,Patna,"Samanpura, Patna - BSPCB","14-02-2026 12:00:00",25.596727,85.085624,PM2.5,43,99,74
India,Bihar,Purnia,"Mariam Nagar, Purnia - BSPCB","14-02-2026 12:00:00",25.366336,87.117468,PM10,51,73,62
India,Bihar,Rajgir,"Dangi Tola, Rajgir - BSPCB","14-02-2026 12:00:00",25.03280,85.41948,PM10,NA,NA,NA
India,Assam,Nalbari,"Bata Chowk, Nalbari - PCBA","14-02-2026 12:00:00",26.446912,91.439057,PM2.5,98,197,142
India,Assam,Silchar,"Tarapur, Silchar - PCBA","14-02-2026 12:00:00",24.82827,92.79525,NH3,1,2,1
India,Assam,Silchar,"Tarapur, Silchar - PCBA","14-02-2026 12:00:00",24.82827,92.79525,OZONE,2,6,2
India,Assam,Sivasagar,"Girls College, Sivasagar - PCBA","14-02-2026 12:00:00",26.987634,94.636574,PM10,NA,NA,NA
India,Bihar,Araria,"Kharahiya Basti, Araria - BSPCB","14-02-2026 12:00:00",26.146529,87.454184,PM2.5,25,137,75
India,Bihar,Araria,"Kharahiya Basti, Araria - BSPCB","14-02-2026 12:00:00",26.146529,87.454184,SO2,18,65,40
India,Andhra_Pradesh,Amaravati,"Secretariat, Amaravati - APPCB","14-02-2026 12:00:00",16.5150833,80.5181667,PM10,82,318,160
India,Andhra_Pradesh,Chittoor,"Gangineni Cheruvu, Chittoor - APPCB","14-02-2026 12:00:00",13.204880,79.097889,CO,28,54,38
India,Andhra_Pradesh,Rajamahendravaram,"Anand Kala Kshetram, Rajamahendravaram - APPCB","14-02-2026 12:00:00",16.9872867,81.7363176,PM2.5,67,166,106
India,Chandigarh,Chandigarh,"Sector 22, Chandigarh - CPCC","14-02-2026 12:00:00",30.735567,76.775714,OZONE,5,147,79
India,Chhattisgarh,Bhilai,"32Bungalows, Bhilai - CECB","14-02-2026 12:00:00",21.194815,81.314770,PM2.5,18,45,35
India,Chhattisgarh,Bhilai,"32Bungalows, Bhilai - CECB","14-02-2026 12:00:00",21.194815,81.314770,PM10,43,84,65
India,Chhattisgarh,Bhilai,"32Bungalows, Bhilai - CECB","14-02-2026 12:00:00",21.194815,81.314770,NO2,35,50,42
India,Chhattisgarh,Bhilai,"32Bungalows, Bhilai - CECB","14-02-2026 12:00:00",21.194815,81.314770,NH3,1,2,2
India,Chhattisgarh,Bhilai,"32Bungalows, Bhilai - CECB","14-02-2026 12:00:00",21.194815,81.314770,OZONE,3,44,6
India,Chhattisgarh,Bhilai,"Civic Center, Bhilai - Bhilai Steel Plant","14-02-2026 12:00:00",21.185571,81.343175,NO2,10,11,11
India,Chhattisgarh,Bhilai,"Hathkhoj, Bhilai - CECB","14-02-2026 12:00:00",21.224231,81.408350,OZONE,4,16,9
India,Chhattisgarh,Bilaspur,"Mangala, Bilaspur - NTPC","14-02-2026 12:00:00",22.08815,82.13737,CO,28,117,38
India,Chhattisgarh,Chhal,"Nawapara SECL Colony, Chhal - CECB","14-02-2026 12:00:00",22.118125,83.140608,SO2,2,68,20
India,Delhi,Delhi,"Mandir Marg, Delhi - DPCC","14-02-2026 12:00:00",28.636429,77.201067,NH3,5,12,8
India,Delhi,Delhi,"Mandir Marg, Delhi - DPCC","14-02-2026 12:00:00",28.636429,77.201067,OZONE,16,169,31
India,Delhi,Delhi,"Mundka, Delhi - DPCC","14-02-2026 12:00:00",28.684678,77.076574,PM2.5,60,480,268
India,Delhi,Delhi,"Mundka, Delhi - DPCC","14-02-2026 12:00:00",28.684678,77.076574,NH3,9,15,11
India,Delhi,Delhi,"NSIT Dwarka, Delhi - CPCB","14-02-2026 12:00:00",28.60909,77.0325413,PM10,72,209,143
India,Delhi,Delhi,"NSIT Dwarka, Delhi - CPCB","14-02-2026 12:00:00",28.60909,77.0325413,SO2,9,22,15
India,Delhi,Delhi,"Najafgarh, Delhi - DPCC","14-02-2026 12:00:00",28.570173,76.933762,PM10,52,142,89
India,Delhi,Delhi,"Najafgarh, Delhi - DPCC","14-02-2026 12:00:00",28.570173,76.933762,CO,2,107,31
India,Delhi,Delhi,"Narela, Delhi - DPCC","14-02-2026 12:00:00",28.822836,77.101981,NO2,16,72,38
India,Delhi,Delhi,"Narela, Delhi - DPCC","14-02-2026 12:00:00",28.822836,77.101981,CO,38,77,52
India,Delhi,Delhi,"Nehru Nagar, Delhi - DPCC","14-02-2026 12:00:00",28.567890,77.250515,SO2,5,110,22
India,Delhi,Delhi,"Nehru Nagar, Delhi - DPCC","14-02-2026 12:00:00",28.567890,77.250515,OZONE,2,120,10
India,Chhattisgarh,Raipur,"AIIMS, Raipur - CECB","14-02-2026 12:00:00",21.258815,81.578979,PM10,44,178,94
India,Chhattisgarh,Raipur,"Krishak Nagar, Raipur - CECB","14-02-2026 12:00:00",21.237755,81.705301,NH3,2,2,2
India,Chhattisgarh,Raipur,"Siltara Phase-II, Raipur - CECB","14-02-2026 12:00:00",21.371751,81.664929,PM10,42,165,99
India,Chhattisgarh,Raipur,"Siltara Phase-II, Raipur - CECB","14-02-2026 12:00:00",21.371751,81.664929,SO2,3,4,3
India,Chhattisgarh,Raipur,"Siltara Phase-II, Raipur - CECB","14-02-2026 12:00:00",21.371751,81.664929,CO,34,36,35
India,Chhattisgarh,Tumidih,"OP Jindal Industrial Park, Tumidih - CECB","14-02-2026 12:00:00",22.06631475,83.33820077,NO2,29,95,65
India,Chhattisgarh,Tumidih,"OP Jindal Industrial Park, Tumidih - CECB","14-02-2026 12:00:00",22.06631475,83.33820077,CO,19,46,32
India,Chhattisgarh,Tumidih,"OP Jindal Industrial Park, Tumidih - CECB","14-02-2026 12:00:00",22.06631475,83.33820077,OZONE,8,108,27
India,Delhi,Delhi,"Alipur, Delhi - DPCC","14-02-2026 12:00:00",28.815329,77.153010,PM2.5,50,359,237
India,Delhi,Delhi,"Alipur, Delhi - DPCC","14-02-2026 12:00:00",28.815329,77.153010,NO2,23,107,65
India,Delhi,Delhi,"R K Puram, Delhi - DPCC","14-02-2026 12:00:00",28.563262,77.186937,NO2,18,120,58
India,Delhi,Delhi,"R K Puram, Delhi - DPCC","14-02-2026 12:00:00",28.563262,77.186937,CO,45,137,94
India,Delhi,Delhi,"R K Puram, Delhi - DPCC","14-02-2026 12:00:00",28.563262,77.186937,OZONE,8,104,15
India,Delhi,Delhi,"Rohini, Delhi - DPCC","14-02-2026 12:00:00",28.732528,77.119920,PM2.5,65,444,262
India,Delhi,Delhi,"Rohini, Delhi - DPCC","14-02-2026 12:00:00",28.732528,77.119920,PM10,102,500,262
India,Delhi,Delhi,"Rohini, Delhi - DPCC","14-02-2026 12:00:00",28.732528,77.119920,NO2,13,100,53
India,Delhi,Delhi,"Rohini, Delhi - DPCC","14-02-2026 12:00:00",28.732528,77.119920,OZONE,6,153,16
India,Delhi,Delhi,"Shadipur, Delhi - CPCB","14-02-2026 12:00:00",28.6514781,77.1473105,NO2,57,165,97
India,Delhi,Delhi,"Shadipur, Delhi - CPCB","14-02-2026 12:00:00",28.6514781,77.1473105,OZONE,8,57,17
India,Delhi,Delhi,"Sirifort, Delhi - CPCB","14-02-2026 12:00:00",28.5504249,77.2159377,NO2,26,38,32
India,Delhi,Delhi,"Sonia Vihar, Delhi - DPCC","14-02-2026 12:00:00",28.710508,77.249485,CO,70,124,111
India,Delhi,Delhi,"North Campus, DU, Delhi - IMD","14-02-2026 12:00:00",28.6573814,77.1585447,NO2,47,114,77
India,Delhi,Delhi,"Patparganj, Delhi - DPCC","14-02-2026 12:00:00",28.623763,77.287209,PM2.5,63,353,227
India,Delhi,Delhi,"Patparganj, Delhi - DPCC","14-02-2026 12:00:00",28.623763,77.287209,NO2,14,86,54
India,Delhi,Delhi,"Patparganj, Delhi - DPCC","14-02-2026 12:00:00",28.623763,77.287209,NH3,6,9,7
India,Delhi,Delhi,"Punjabi Bagh, Delhi - DPCC","14-02-2026 12:00:00",28.674045,77.131023,PM2.5,42,371,237
India,Delhi,Delhi,"Pusa, Delhi - IMD","14-02-2026 12:00:00",28.636110,77.173332,PM2.5,52,313,183
India,Delhi,Delhi,"Chandni Chowk, Delhi - IITM","14-02-2026 12:00:00",28.656756,77.227234,OZONE,2,143,26
India,Delhi,Delhi,"DTU, Delhi - CPCB","14-02-2026 12:00:00",28.7500499,77.1112615,PM2.5,46,361,208
India,Delhi,Delhi,"DTU, Delhi - CPCB","14-02-2026 12:00:00",28.7500499,77.1112615,CO,12,52,42
India,Delhi,Delhi,"Dr. Karni Singh Shooting Range, Delhi - DPCC","14-02-2026 12:00:00",28.498571,77.264840,NH3,7,9,8
India,Delhi,Delhi,"IGI Airport (T3), Delhi - IMD","14-02-2026 12:00:00",28.5627763,77.1180053,PM2.5,37,333,147
India,Chhattisgarh,Korba,"Rampur, Korba - CECB","14-02-2026 12:00:00",22.368195,82.746431,NH3,1,1,1
India,Chhattisgarh,Korba,"Urja Nagar, Korba - CECB","14-02-2026 12:00:00",22.348441,82.549611,CO,11,54,26
India,Chhattisgarh,Kunjemura,"OP Jindal School, Kunjemura - CECB","14-02-2026 12:00:00",22.126650,83.483212,PM10,65,169,117
India,Delhi,Delhi,"Jahangirpuri, Delhi - DPCC","14-02-2026 12:00:00",28.732820,77.170633,NH3,13,44,33
India,Delhi,Delhi,"Major Dhyan Chand National Stadium, Delhi - DPCC","14-02-2026 12:00:00",28.611281,77.237738,PM10,86,441,178
India,Delhi,Delhi,"Mandir Marg, Delhi - DPCC","14-02-2026 12:00:00",28.636429,77.201067,PM2.5,27,305,171
India,Delhi,Delhi,"Aya Nagar, Delhi - IMD","14-02-2026 12:00:00",28.4706914,77.1099364,OZONE,5,112,17
India,Delhi,Delhi,"Bawana, Delhi - DPCC","14-02-2026 12:00:00",28.776200,77.051074,OZONE,3,92,9
India,Gujarat,Gandhinagar,"Sector-10, Gandhinagar - GPCB","14-02-2026 12:00:00",23.221714,72.654328,OZONE,3,110,18
India,Gujarat,Mehsana,"Sadanand Nagar, Mehsana - Nexteng Enviro","14-02-2026 12:00:00",23.593150,72.372792,NO2,24,44,34
India,Gujarat,Rajkot,"Mavdi, Rajkot - Nexteng Enviro ","14-02-2026 12:00:00",22.248853,70.776774,PM2.5,58,301,136
India,Gujarat,Rajkot,"Mavdi, Rajkot - Nexteng Enviro ","14-02-2026 12:00:00",22.248853,70.776774,PM10,77,260,136
India,Gujarat,Rajkot,"Mavdi, Rajkot - Nexteng Enviro ","14-02-2026 12:00:00",22.248853,70.776774,NH3,3,5,4
India,Gujarat,Surat,"Katargam, Surat - Nexteng Enviro","14-02-2026 12:00:00","21.217779 ","72.834787 ",NH3,4,6,5
India,Gujarat,Surat,"Katargam, Surat - Nexteng Enviro","14-02-2026 12:00:00","21.217779 ","72.834787 ",CO,125,139,130
India,Gujarat,Surat,"Katargam, Surat - Nexteng Enviro","14-02-2026 12:00:00","21.217779 ","72.834787 ",OZONE,7,8,8
India,Gujarat,Surat,"Science Center, Surat - SMC","14-02-2026 12:00:00",21.170046,72.795405,PM2.5,175,424,312
India,Gujarat,Vadodara,"Bapunagar, Vadodara - Nexteng Enviro","14-02-2026 12:00:00",22.320153,73.216285,NO2,14,41,24
India,Gujarat,Vapi,"Phase-1 GIDC, Vapi - GPCB","14-02-2026 12:00:00",20.362421,72.918013,NO2,12,27,15
India,Gujarat,Vapi,"Phase-1 GIDC, Vapi - GPCB","14-02-2026 12:00:00",20.362421,72.918013,NH3,2,4,2
India,Haryana,Hisar,"Urban Estate-II, Hisar - HSPCB","14-02-2026 12:00:00",29.140560,75.744941,PM2.5,25,85,60
India,Haryana,Hisar,"Urban Estate-II, Hisar - HSPCB","14-02-2026 12:00:00",29.140560,75.744941,PM10,52,113,91
India,Haryana,Hisar,"Urban Estate-II, Hisar - HSPCB","14-02-2026 12:00:00",29.140560,75.744941,NO2,26,27,26
India,Haryana,Kaithal,"Rishi Nagar, Kaithal - HSPCB","14-02-2026 12:00:00",29.8006,76.4155,NO2,20,32,30
India,Haryana,Karnal,"Sector-12, Karnal - HSPCB","14-02-2026 12:00:00",29.695300,77.002700,NH3,6,7,6
India,Haryana,Karnal,"Sector-12, Karnal - HSPCB","14-02-2026 12:00:00",29.695300,77.002700,SO2,6,7,6
India,Haryana,Karnal,"Sector-12, Karnal - HSPCB","14-02-2026 12:00:00",29.695300,77.002700,CO,30,41,33
India,Haryana,Karnal,"Sector-12, Karnal - HSPCB","14-02-2026 12:00:00",29.695300,77.002700,OZONE,31,31,31
India,Haryana,Kurukshetra,"Sector-7, Kurukshetra - HSPCB","14-02-2026 12:00:00",29.966942,76.875879,CO,12,44,31
India,Haryana,Kurukshetra,"Sector-7, Kurukshetra - HSPCB","14-02-2026 12:00:00",29.966942,76.875879,OZONE,8,59,20
India,Delhi,Delhi,"Wazirpur, Delhi - DPCC","14-02-2026 12:00:00",28.699793,77.165453,NH3,10,13,12
India,Gujarat,Ahmedabad,"Chandkheda, Ahmedabad - IITM","14-02-2026 12:00:00",23.107969,72.574648,NO2,NA,NA,NA
India,Gujarat,Ahmedabad,"Chandkheda, Ahmedabad - IITM","14-02-2026 12:00:00",23.107969,72.574648,CO,NA,NA,NA
India,Gujarat,Ahmedabad,"Gyaspur, Ahmedabad - IITM","14-02-2026 12:00:00",22.977134,72.553024,PM2.5,75,421,200
India,Gujarat,Ahmedabad,"Gyaspur, Ahmedabad - IITM","14-02-2026 12:00:00",22.977134,72.553024,PM10,NA,NA,NA
India,Gujarat,Ahmedabad,"Gyaspur, Ahmedabad - IITM","14-02-2026 12:00:00",22.977134,72.553024,NH3,6,67,20
India,Gujarat,Ahmedabad,"Raikhad, Ahmedabad - IITM","14-02-2026 12:00:00",23.020509,72.579261,NO2,39,194,93
India,Haryana,"Charkhi Dadri","Mini Secretariat, Charkhi Dadri - HSPCB","14-02-2026 12:00:00",28.593883,76.270653,PM2.5,48,146,125
India,Haryana,Dharuhera,"Municipal Corporation Office, Dharuhera -  HSPCB","14-02-2026 12:00:00",28.206800,76.799700,PM2.5,47,327,202
India,Haryana,Faridabad,"New Industrial Town, Faridabad - HSPCB","14-02-2026 12:00:00",28.39072,77.30059,NO2,23,27,25
India,Haryana,Faridabad,"Sector 11, Faridabad - HSPCB","14-02-2026 12:00:00",28.376058,77.315741,PM10,73,358,172
India,Haryana,Faridabad,"Sector 11, Faridabad - HSPCB","14-02-2026 12:00:00",28.376058,77.315741,NO2,29,32,31
India,Haryana,Fatehabad,"Huda Sector, Fatehabad - HSPCB","14-02-2026 12:00:00",29.503664,75.467934,PM2.5,17,50,33
India,Haryana,Fatehabad,"Huda Sector, Fatehabad - HSPCB","14-02-2026 12:00:00",29.503664,75.467934,PM10,25,75,49
India,Haryana,Gurugram,"Sector-51, Gurugram - HSPCB","14-02-2026 12:00:00",28.4227,77.0667,NH3,9,14,12
India,Haryana,Gurugram,"Teri Gram, Gurugram - HSPCB","14-02-2026 12:00:00",28.4275,77.1465,PM2.5,177,500,317
India,Haryana,Gurugram,"Teri Gram, Gurugram - HSPCB","14-02-2026 12:00:00",28.4275,77.1465,SO2,8,22,15
India,Haryana,Gurugram,"Vikas Sadan, Gurugram - HSPCB","14-02-2026 12:00:00",28.4501238,77.0263051,CO,64,114,98
India,Gujarat,Ahmedabad,"Rakhial, Ahmedabad - IITM","14-02-2026 12:00:00",23.016834,72.625775,NO2,20,144,67
India,Gujarat,Ahmedabad,"Rakhial, Ahmedabad - IITM","14-02-2026 12:00:00",23.016834,72.625775,CO,24,66,28
India,Gujarat,Ahmedabad,"SAC ISRO Satellite, Ahmedabad - IITM","14-02-2026 12:00:00",23.023389,72.515201,PM10,108,192,138
India,Gujarat,Ahmedabad,"SAC ISRO Satellite, Ahmedabad - IITM","14-02-2026 12:00:00",23.023389,72.515201,NH3,7,16,10
India,Gujarat,Ahmedabad,"SVPI Airport Hansol, Ahmedabad - IITM","14-02-2026 12:00:00",23.076793,72.627874,NH3,2,26,10
India,Gujarat,Ankleshwar,"GIDC, Ankleshwar - GPCB","14-02-2026 12:00:00",21.613267,73.010555,CO,44,110,79
India,Haryana,Ambala,"Patti Mehar, Ambala - HSPCB","14-02-2026 12:00:00",30.379589,76.778328,PM2.5,81,147,109
India,Haryana,Ambala,"Patti Mehar, Ambala - HSPCB","14-02-2026 12:00:00",30.379589,76.778328,OZONE,14,16,15
India,Haryana,Bahadurgarh,"Arya Nagar, Bahadurgarh - HSPCB","14-02-2026 12:00:00",28.6701,76.9254,SO2,7,7,7
India,Haryana,Ballabgarh,"Nathu Colony, Ballabgarh - HSPCB","14-02-2026 12:00:00",28.3419248,77.319699,SO2,3,8,5
India,Haryana,Bhiwani,"H.B. Colony, Bhiwani - HSPCB","14-02-2026 12:00:00",28.806223,76.141105,NO2,1,35,31
India,Gujarat,Bhavnagar,"Vidhyanagar, Bhavnagar - Nexteng Enviro","14-02-2026 12:00:00",21.755417,72.139056,CO,119,141,122
India,Gujarat,Gandhinagar,"Sector-10, Gandhinagar - GPCB","14-02-2026 12:00:00",23.221714,72.654328,NH3,2,5,4
India,Karnataka,Bengaluru,"Hebbal, Bengaluru - KSPCB","14-02-2026 12:00:00",13.029152,77.585901,PM10,36,92,64
India,Karnataka,Bengaluru,"Hebbal, Bengaluru - KSPCB","14-02-2026 12:00:00",13.029152,77.585901,NH3,1,2,1
India,Karnataka,Bengaluru,"Hombegowda Nagar, Bengaluru - KSPCB","14-02-2026 12:00:00",12.938539,77.590100,SO2,9,25,15
India,Karnataka,Bengaluru,"Jayanagar 5th Block, Bengaluru - KSPCB","14-02-2026 12:00:00",12.920984,77.584908,NH3,1,2,2
India,Karnataka,Bengaluru,"Jayanagar 5th Block, Bengaluru - KSPCB","14-02-2026 12:00:00",12.920984,77.584908,OZONE,6,55,38
India,Karnataka,Bengaluru,"Jigani, Bengaluru - KSPCB","14-02-2026 12:00:00",12.7816279,77.6299145,NO2,18,25,23
India,Karnataka,Bengaluru,"Kasturi Nagar, Bengaluru - KSPCB","14-02-2026 12:00:00",13.003872,77.664217,PM2.5,57,59,58
India,Karnataka,Bengaluru,"Kasturi Nagar, Bengaluru - KSPCB","14-02-2026 12:00:00",13.003872,77.664217,NO2,31,33,32
India,Karnataka,Bengaluru,"Kasturi Nagar, Bengaluru - KSPCB","14-02-2026 12:00:00",13.003872,77.664217,CO,42,50,45
India,Karnataka,Bengaluru,"RVCE-Mailasandra, Bengaluru - KSPCB","14-02-2026 12:00:00",12.921418,77.502466,PM2.5,26,472,102
India,Karnataka,Bengaluru,"RVCE-Mailasandra, Bengaluru - KSPCB","14-02-2026 12:00:00",12.921418,77.502466,PM10,62,111,96
India,Karnataka,Chikkaballapur,"Chikkaballapur Rural, Chikkaballapur - KSPCB","14-02-2026 12:00:00",13.428828,77.731418,NH3,4,9,6
India,Karnataka,Chikkaballapur,"Chikkaballapur Rural, Chikkaballapur - KSPCB","14-02-2026 12:00:00",13.428828,77.731418,OZONE,23,27,24
India,Karnataka,Chikkamagaluru,"Kalyana Nagara, Chikkamagaluru - KSPCB","14-02-2026 12:00:00",13.328028,75.797056,NO2,17,26,19
India,Karnataka,Chikkamagaluru,"Kalyana Nagara, Chikkamagaluru - KSPCB","14-02-2026 12:00:00",13.328028,75.797056,NH3,2,3,2
India,Karnataka,Dharwad,"Kalabhavan, Dharwad - KSPCB","14-02-2026 12:00:00",15.459706,75.008381,OZONE,23,31,31
India,Karnataka,Hubballi,"Lingaraj Nagar, Hubballi - KSPCB","14-02-2026 12:00:00",15.3714823,75.1160168,PM10,58,71,64
India,Karnataka,Hubballi,"Lingaraj Nagar, Hubballi - KSPCB","14-02-2026 12:00:00",15.3714823,75.1160168,OZONE,10,32,20
India,Karnataka,Kalaburagi,"Mahatma Basaveswar Colony, Kalaburgi - KSPCB","14-02-2026 12:00:00",17.336318,76.847397,NH3,2,4,3
India,Karnataka,Mysuru,"Hebbal 1st Stage, Mysuru - KSPCB","14-02-2026 12:00:00",12.21041,76.37376,PM10,54,93,72
India,Karnataka,Ramanagara,"Vijay Nagar, Ramanagara - KSPCB","14-02-2026 12:00:00",12.733409,77.298051,CO,18,36,28
India,Karnataka,Shivamogga,"Vinoba Nagara, Shivamogga - KSPCB","14-02-2026 12:00:00",13.940000,75.555917,PM10,38,70,45
India,Karnataka,Vijayapura,"Ibrahimpur, Vijayapura - KSPCB","14-02-2026 12:00:00",16.802639,75.722694,SO2,3,6,3
India,Karnataka,Vijayapura,"Ibrahimpur, Vijayapura - KSPCB","14-02-2026 12:00:00",16.802639,75.722694,CO,16,32,23
India,Karnataka,Yadgir,"Collector Office, Yadgir - KSPCB","14-02-2026 12:00:00",16.7602,77.1428,PM2.5,36,90,63
India,Karnataka,Yadgir,"Collector Office, Yadgir - KSPCB","14-02-2026 12:00:00",16.7602,77.1428,NO2,8,35,17
India,Karnataka,Yadgir,"Collector Office, Yadgir - KSPCB","14-02-2026 12:00:00",16.7602,77.1428,CO,2,20,7
India,Kerala,Eloor,"Udyogamandal, Eloor - Kerala PCB","14-02-2026 12:00:00",10.073232,76.302765,SO2,1,1,1
India,Kerala,Kannur,"Thavakkara, Kannur - Kerala PCB","14-02-2026 12:00:00",11.875000,75.373200,OZONE,28,33,29
India,Kerala,Kollam,"Polayathode, Kollam - Kerala PCB","14-02-2026 12:00:00",8.8787,76.6073,PM10,69,79,75
India,Kerala,Thiruvananthapuram,"Kariavattom, Thiruvananthapuram - Kerala PCB","14-02-2026 12:00:00",8.563700,76.886500,NO2,7,8,8
India,Kerala,Thiruvananthapuram,"Plammoodu, Thiruvananthapuram - Kerala PCB","14-02-2026 12:00:00",8.5149093,76.9435879,NO2,NA,NA,NA
India,Kerala,Thiruvananthapuram,"Plammoodu, Thiruvananthapuram - Kerala PCB","14-02-2026 12:00:00",8.5149093,76.9435879,OZONE,10,49,25
India,Kerala,Thrissur,"Corporation Ground, Thrissur - Kerala PCB","14-02-2026 12:00:00",10.532400,76.215900,PM10,72,94,81
India,Haryana,Sirsa,"F-Block, Sirsa - HSPCB","14-02-2026 12:00:00",29.536400,75.015800,CO,30,125,69
India,Jammu_and_Kashmir,Pampore,"Khrew, Pampore - JKPCC","14-02-2026 12:00:00",34.031606,75.009712,PM10,39,82,62
India,Jammu_and_Kashmir,Srinagar,"Khunmoh, Srinagar - JKPCC","14-02-2026 12:00:00",34.06313,74.96017,PM10,30,94,47
India,Jammu_and_Kashmir,Srinagar,"Khunmoh, Srinagar - JKPCC","14-02-2026 12:00:00",34.06313,74.96017,SO2,2,4,3
India,Jammu_and_Kashmir,Srinagar,"Rajbagh, Srinagar - JKPCC","14-02-2026 12:00:00",34.066206,74.819820,PM10,21,44,32
India,Jammu_and_Kashmir,Srinagar,"Rajbagh, Srinagar - JKPCC","14-02-2026 12:00:00",34.066206,74.819820,CO,6,20,13
India,Jharkhand,Dhanbad,"Sardar Patel Nagar, Dhanbad - JSPCB","14-02-2026 12:00:00",23.80569,86.44268,PM2.5,18,222,82
